$INTEL,KIM,2.0.0.6,144902500,2281,0,0.000,0.000,0,0.000,0.000,0.000,0.000,0.000,0.000*09
$GNGGA,161503.000,4011.89028,N,11137.25974,W,1,10,1.20,0.00,M,1382.35,M,,*6B
$GNGLL,4011.89028,N,11137.25974,W,161503.000,A*3F
$GNGSA,A,03,10,15,18,23,24,27,04,05,09,10,11,32,1.2,2.0,3.0*18
$GNRMC,161503,A,4011.89028,N,11137.25974,W,000.0,000.0,250923,000.0,E*72
$GNZDA,161503.000,25,09,2023,00,00*45
$GNVTG,0.00,T,,M,0.00,N,0.00,K,A*23
$GPGSV,4,1,13,10,52,275,42,15,36,051,41,18,64,093,47,23,72,001,44*79
$GPGSV,4,2,13,24,20,102,41,27,39,300,41,32,19,201,42,522,52,275,05*4D
$GPGSV,4,3,13,530,64,093,07,535,72,001,04,536,20,102,05,539,39,300,10*75
$GPGSV,4,4,13,544,19,201,08*7D
$GAGSV,4,1,14,04,28,046,24,05,36,194,44,09,68,104,24,10,10,118,17*64
$GAGSV,4,2,14,11,36,112,43,34,34,311,42,36,78,032,43,260,28,046,05*5B
$GAGSV,4,3,14,261,36,194,09,265,68,104,04,266,10,118,08,267,36,112,05*63
$GAGSV,4,4,14,290,34,311,09,292,78,032,06,292,78,032,05*68
$INTEL,KIM,2.0.0.6,144903000,2281,0,0.000,0.000,0,0.000,0.000,0.000,0.000,0.000,0.000*0D
$GPGSV,4,1,13,10,52,275,42,15,36,051,41,18,64,093,47,23,72,001,44*79
$GPGSV,4,2,13,24,20,102,42,27,39,300,41,32,19,201,42,522,52,275,05*4E
$GPGSV,4,3,13,530,64,093,07,535,72,001,04,536,20,102,05,539,39,300,10*75
$GPGSV,4,4,13,544,19,201,08*7D
$GAGSV,4,1,14,04,28,046,24,05,36,194,44,09,68,104,25,10,10,118,16*64
$GAGSV,4,2,14,11,36,112,43,34,34,311,43,36,78,032,44,260,28,046,05*5D
$GAGSV,4,3,14,261,36,194,10,265,68,104,09,266,10,118,08,267,36,112,05*66
$GAGSV,4,4,14,290,34,311,20,292,78,032,06,292,78,032,05*63
$GNGGA,161503.500,4011.89030,N,11137.25974,W,1,10,1.20,0.00,M,1382.36,M,,*64
$GNGLL,4011.89030,N,11137.25974,W,161503.500,A*33
$GNGSA,A,03,10,15,18,23,24,27,04,05,09,10,11,32,1.2,2.0,2.0*19
$GNRMC,161503,A,4011.89030,N,11137.25974,W,000.0,000.0,250923,000.0,E*7B
$GNZDA,161503.500,25,09,2023,00,00*40
$GNVTG,0.00,T,,M,0.00,N,0.00,K,A*23
$INTEL,KIM,2.0.0.6,144903500,2281,0,0.000,0.000,0,0.000,0.000,0.000,0.000,0.000,0.000*08
$GPGSV,4,1,13,10,52,275,42,15,36,051,41,18,64,093,47,23,72,001,44*79
$GPGSV,4,2,13,24,20,102,42,27,39,300,41,32,19,201,42,522,52,275,13*49
$GPGSV,4,3,13,530,64,093,10,535,72,001,04,536,20,102,05,539,39,300,10*73
$GPGSV,4,4,13,544,19,201,08*7D
$GAGSV,4,1,14,04,28,046,24,05,36,194,44,09,68,104,24,10,10,118,14*67
$GAGSV,4,2,14,11,36,112,43,34,34,311,43,36,78,032,44,260,28,046,12*5B
$GAGSV,4,3,14,261,36,194,07,265,68,104,09,266,10,118,08,267,36,112,05*60
$GAGSV,4,4,14,290,34,311,17,292,78,032,17,292,78,032,05*67
$GNGGA,161504.000,4011.89033,N,11137.25976,W,1,10,1.20,0.00,M,1382.37,M,,*66
$GNGLL,4011.89033,N,11137.25976,W,161504.000,A*30
$GNGSA,A,03,10,15,18,23,24,27,04,05,09,10,11,32,1.2,2.0,2.0*19
$GNRMC,161504,A,4011.89033,N,11137.25976,W,000.0,000.0,250923,000.0,E*7D
$GNZDA,161504.000,25,09,2023,00,00*42
$GNVTG,0.00,T,,M,0.00,N,0.00,K,A*23
$INTEL,KIM,2.0.0.6,144904000,2281,0,0.000,0.000,0,0.000,0.000,0.000,0.000,0.000,0.000*0A
$GPGSV,4,1,13,10,52,275,42,15,36,051,42,18,64,093,47,23,72,001,44*7A
$GPGSV,4,2,13,24,20,102,42,27,39,300,41,32,19,201,42,522,52,275,12*48
$GPGSV,4,3,13,530,64,093,06,535,72,001,04,536,20,102,05,539,39,300,08*7D
$GPGSV,4,4,13,544,19,201,08*7D
$GAGSV,4,1,14,04,28,046,24,05,36,194,45,09,68,104,24,10,10,118,16*64
$GAGSV,4,2,14,11,36,112,43,34,34,311,43,36,78,032,44,260,28,046,11*58
$GAGSV,4,3,14,261,36,194,08,265,68,104,09,266,10,118,08,267,36,112,13*68
$GAGSV,4,4,14,290,34,311,12,292,78,032,12,292,78,032,05*67
$GNGGA,161504.500,4011.89034,N,11137.25978,W,1,10,1.20,0.00,M,1382.38,M,,*65
$GNGLL,4011.89034,N,11137.25978,W,161504.500,A*3C
$GNGSA,A,03,10,15,18,23,24,27,04,05,09,10,11,32,1.2,2.0,3.0*18
$GNRMC,161504,A,4011.89034,N,11137.25978,W,000.0,000.0,250923,000.0,E*74
$GNZDA,161504.500,25,09,2023,00,00*47
$GNVTG,0.00,T,,M,0.00,N,0.00,K,A*23
$INTEL,KIM,2.0.0.6,144904500,2281,0,0.000,0.000,0,0.000,0.000,0.000,0.000,0.000,0.000*0F
$GPGSV,4,1,13,10,52,275,42,15,36,051,42,18,64,093,47,23,72,001,44*7A
$GPGSV,4,2,13,24,20,102,42,27,39,300,41,32,19,201,42,522,52,275,10*4A
$GPGSV,4,3,13,530,64,093,06,535,72,001,04,536,20,102,05,539,39,300,11*75
$GPGSV,4,4,13,544,19,201,08*7D
$GAGSV,4,1,14,04,28,046,25,05,36,194,44,09,68,104,24,10,10,118,12*60
$GAGSV,4,2,14,11,36,112,43,34,34,311,43,36,78,032,44,260,28,046,08*50
$GAGSV,4,3,14,261,36,194,08,265,68,104,09,266,10,118,08,267,36,112,08*62
$GAGSV,4,4,14,290,34,311,05,292,78,032,02,292,78,032,05*60
$GNGGA,161505.000,4011.89036,N,11137.25980,W,1,10,1.20,0.00,M,1382.40,M,,*6B
$GNGLL,4011.89036,N,11137.25980,W,161505.000,A*3D
$GNGSA,A,03,10,15,18,23,24,27,04,05,09,10,11,32,1.2,2.0,2.0*19
$GNRMC,161505,A,4011.89036,N,11137.25980,W,000.0,000.0,250923,000.0,E*70
$GNZDA,161505.000,25,09,2023,00,00*43
$GNVTG,0.00,T,,M,0.00,N,0.00,K,A*23
$INTEL,KIM,2.0.0.6,144905000,2281,0,0.000,0.000,0,0.000,0.000,0.000,0.000,0.000,0.000*0B
$GPGSV,4,1,13,10,52,275,42,15,36,051,43,18,64,093,47,23,72,001,44*7B
$GPGSV,4,2,13,24,20,102,42,27,39,300,41,32,19,201,42,522,52,275,10*4A
$GPGSV,4,3,13,530,64,093,06,535,72,001,04,536,20,102,05,539,39,300,09*7C
$GPGSV,4,4,13,544,19,201,08*7D
$GAGSV,4,1,14,04,28,046,24,05,36,194,43,09,68,104,24,10,10,118,11*65
$GAGSV,4,2,14,11,36,112,42,34,34,311,41,36,78,032,42,260,28,046,08*55
$GAGSV,4,3,14,261,36,194,08,265,68,104,07,266,10,118,08,267,36,112,08*6C
$GAGSV,4,4,14,290,34,311,08,292,78,032,02,292,78,032,05*6D
$GNGGA,161505.500,4011.89037,N,11137.25981,W,1,10,1.20,0.00,M,1382.41,M,,*6F
$GNGLL,4011.89037,N,11137.25981,W,161505.500,A*38
$GNGSA,A,03,10,15,18,23,24,27,04,05,09,10,11,32,1.2,2.0,3.0*18
$GNRMC,161505,A,4011.89037,N,11137.25981,W,000.0,000.0,250923,000.0,E*70
$GNZDA,161505.500,25,09,2023,00,00*46
$GNVTG,0.00,T,,M,0.00,N,0.00,K,A*23
$INTEL,KIM,2.0.0.6,144905500,2281,0,0.000,0.000,0,0.000,0.000,0.000,0.000,0.000,0.000*0E
$GNGGA,161506.000,4011.89037,N,11137.25981,W,1,10,1.20,0.00,M,1382.42,M,,*6A
$GNGLL,4011.89037,N,11137.25981,W,161506.000,A*3E
$GNGSA,A,03,10,15,18,23,24,27,04,05,09,10,11,32,1.2,2.0,2.0*19
$GPGSV,3,1,11,10,52,275,43,15,36,051,42,18,64,093,46,23,72,001,44*7F
$GPGSV,3,2,11,24,20,102,42,27,39,300,41,32,19,201,42,522,52,275,10*4F
$GPGSV,3,3,11,530,64,093,24,536,20,102,05,539,39,300,05,544,19,201,08*70
$GAGSV,4,1,14,04,28,046,24,05,36,194,44,09,68,104,25,10,10,118,04*67
$GAGSV,4,2,14,11,36,112,43,34,34,311,42,36,78,032,43,260,28,046,09*57
$GAGSV,4,3,14,261,36,194,17,265,68,104,09,266,10,118,08,267,36,112,08*6C
$GAGSV,4,4,14,290,34,311,08,292,78,032,02*6F
$GNRMC,161506,A,4011.89037,N,11137.25981,W,000.0,000.0,250923,000.0,E*73
$GNZDA,161506.000,25,09,2023,00,00*40
$GNVTG,0.00,T,,M,0.00,N,0.00,K,A*23
$INTEL,KIM,2.0.0.6,144906000,2281,0,0.000,0.000,0,0.000,0.000,0.000,0.000,0.000,0.000*08
$GNGGA,161506.500,4011.89037,N,11137.25982,W,1,10,1.20,0.00,M,1382.43,M,,*6D
$GNGLL,4011.89037,N,11137.25982,W,161506.500,A*38
$GNGSA,A,03,10,15,18,23,24,27,04,05,09,10,11,32,1.2,2.0,2.0*19
$GPGSV,3,1,11,10,52,275,43,15,36,051,42,18,64,094,47,23,72,001,44*79
$GPGSV,3,2,11,24,20,102,42,27,39,300,41,32,19,201,42,522,52,275,10*4F
$GPGSV,3,3,11,530,64,094,22,536,20,102,05,539,39,300,08,544,19,201,08*7C
$GAGSV,4,1,14,04,28,046,24,05,36,194,43,09,68,104,24,10,10,118,04*61
$GAGSV,4,2,14,11,36,112,42,34,34,311,42,36,78,032,43,260,28,046,14*5A
$GAGSV,4,3,14,261,36,194,10,265,68,104,09,266,10,118,08,267,36,112,08*6B
$GAGSV,4,4,14,290,34,311,08,292,78,032,02*6F
$GNRMC,161506,A,4011.89037,N,11137.25982,W,000.0,000.0,250923,000.0,E*70
$GNZDA,161506.500,25,09,2023,00,00*45
$GNVTG,0.00,T,,M,0.00,N,0.00,K,A*23
$INTEL,KIM,2.0.0.6,144906500,2281,0,0.000,0.000,0,0.000,0.000,0.000,0.000,0.000,0.000*0D
$GPGSV,4,1,13,10,52,275,43,15,36,051,42,18,64,094,47,23,72,001,45*7D
$GPGSV,4,2,13,24,20,102,42,27,39,300,41,32,19,201,42,522,52,275,06*4D
$GPGSV,4,3,13,530,64,094,20,535,72,001,09,536,20,102,05,539,39,300,02*79
$GPGSV,4,4,13,544,19,201,16*72
$GAGSV,4,1,14,04,28,046,25,05,36,194,42,09,68,104,24,10,10,118,04*61
$GAGSV,4,2,14,11,36,112,42,34,34,311,41,36,78,032,42,260,28,046,08*55
$GAGSV,4,3,14,261,36,194,08,265,68,104,09,266,10,118,08,267,36,112,08*62
$GAGSV,4,4,14,290,34,311,08,292,78,032,02,292,78,032,05*6D
$GNGGA,161507.000,4011.89037,N,11137.25981,W,1,10,1.20,0.00,M,1382.45,M,,*6C
$GNGLL,4011.89037,N,11137.25981,W,161507.000,A*3F
$GNGSA,A,03,10,15,18,23,24,27,04,05,09,10,11,32,1.2,2.0,2.0*19
$GNRMC,161507,A,4011.89037,N,11137.25981,W,000.0,000.0,250923,000.0,E*72
$GNZDA,161507.000,25,09,2023,00,00*41
$GNVTG,0.00,T,,M,0.00,N,0.00,K,A*23
$INTEL,KIM,2.0.0.6,144907000,2281,0,0.000,0.000,0,0.000,0.000,0.000,0.000,0.000,0.000*09
$GPGSV,4,1,13,10,52,275,43,15,36,051,42,18,64,094,47,23,72,001,44*7C
$GPGSV,4,2,13,24,20,102,42,27,39,300,41,32,19,201,42,522,52,275,10*4A
$GPGSV,4,3,13,530,64,094,18,535,72,001,05,536,20,102,05,539,39,300,02*7E
$GPGSV,4,4,13,544,19,201,13*77
$GAGSV,4,1,14,04,28,046,24,05,36,194,43,09,68,104,24,10,10,118,04*61
$GAGSV,4,2,14,11,36,112,42,34,34,311,42,36,78,032,43,260,28,046,07*58
$GAGSV,4,3,14,261,36,194,05,265,68,104,09,266,10,118,08,267,36,112,08*6F
$GAGSV,4,4,14,290,34,311,04,292,78,032,02,292,78,032,05*61
$GNGGA,161507.500,4011.89037,N,11137.25981,W,1,10,1.20,0.00,M,1382.46,M,,*6A
$GNGLL,4011.89037,N,11137.25981,W,161507.500,A*3A
$GNGSA,A,03,10,15,18,23,24,27,04,05,09,10,11,32,1.2,2.0,2.0*19
$GNRMC,161507,A,4011.89037,N,11137.25981,W,000.0,000.0,250923,000.0,E*72
$GNZDA,161507.500,25,09,2023,00,00*44
$GNVTG,0.00,T,,M,0.00,N,0.00,K,A*23
$INTEL,KIM,2.0.0.6,144907500,2281,0,0.000,0.000,0,0.000,0.000,0.000,0.000,0.000,0.000*0C
$GPGSV,4,1,13,10,52,275,43,15,36,051,42,18,64,094,47,23,72,001,45*7D
$GPGSV,4,2,13,24,20,102,42,27,39,300,41,32,19,201,43,522,52,275,02*48
$GPGSV,4,3,13,530,64,094,15,535,72,001,05,536,20,102,17,539,39,300,12*71
$GPGSV,4,4,13,544,19,201,12*76
$GAGSV,4,1,14,04,28,046,24,05,36,194,43,09,68,104,24,10,10,118,04*61
$GAGSV,4,2,14,11,36,112,42,34,34,311,41,36,78,032,42,260,28,046,07*5A
$GAGSV,4,3,14,261,36,194,05,265,68,104,09,266,10,118,08,267,36,112,08*6F
$GAGSV,4,4,14,290,34,311,08,292,78,032,02,292,78,032,05*6D
$GNGGA,161508.000,4011.89038,N,11137.25981,W,1,10,1.20,0.00,M,1382.46,M,,*6F
$GNGLL,4011.89038,N,11137.25981,W,161508.000,A*3F
$GNGSA,A,03,10,15,18,23,24,27,04,05,09,10,11,32,1.2,2.0,2.0*19
$GNRMC,161508,A,4011.89038,N,11137.25981,W,000.0,000.0,250923,000.0,E*72
$GNZDA,161508.000,25,09,2023,00,00*4E
$GNVTG,0.00,T,,M,0.00,N,0.00,K,A*23
$INTEL,KIM,2.0.0.6,144908000,2281,0,0.000,0.000,0,0.000,0.000,0.000,0.000,0.000,0.000*06
$GPGSV,4,1,13,10,52,275,43,15,36,051,42,18,64,094,47,23,72,001,45*7D
$GPGSV,4,2,13,24,20,102,42,27,39,300,41,32,19,201,43,522,52,275,02*48
$GPGSV,4,3,13,530,64,094,13,535,72,001,05,536,20,102,15,539,39,300,11*76
$GPGSV,4,4,13,544,19,201,12*76
$GAGSV,4,1,14,04,28,046,24,05,36,194,43,09,68,104,24,10,10,118,04*61
$GAGSV,4,2,14,11,36,112,42,34,34,311,41,36,78,032,42,260,28,046,07*5A
$GAGSV,4,3,14,261,36,194,05,265,68,104,09,266,10,118,08,267,36,112,08*6F
$GAGSV,4,4,14,290,34,311,08,292,78,032,02,292,78,032,05*6D
$GNGGA,161508.500,4011.89039,N,11137.25981,W,1,10,1.20,0.00,M,1382.47,M,,*6A
$GNGLL,4011.89039,N,11137.25981,W,161508.500,A*3B
$GNGSA,A,03,10,15,18,23,24,27,04,05,09,10,11,32,1.2,2.0,2.0*19
$GNRMC,161508,A,4011.89039,N,11137.25981,W,000.0,000.0,250923,000.0,E*73
$GNZDA,161508.500,25,09,2023,00,00*4B
$GNVTG,0.00,T,,M,0.00,N,0.00,K,A*23
$INTEL,KIM,2.0.0.6,144908500,2281,0,0.000,0.000,0,0.000,0.000,0.000,0.000,0.000,0.000*03
$GPGSV,4,1,13,10,52,275,42,15,36,051,41,18,64,094,46,23,72,001,44*7F
$GPGSV,4,2,13,24,20,102,41,27,39,300,41,32,19,201,42,522,52,275,02*4A
$GPGSV,4,3,13,530,64,094,11,535,72,001,05,536,20,102,15,539,39,300,11*74
$GPGSV,4,4,13,544,19,201,11*75
$GAGSV,4,1,14,04,28,046,24,05,36,194,43,09,68,104,24,10,10,118,04*61
$GAGSV,4,2,14,11,36,112,42,34,34,311,42,36,78,032,42,260,28,046,16*59
$GAGSV,4,3,14,261,36,194,16,265,68,104,09,266,10,118,08,267,36,112,08*6D
$GAGSV,4,4,14,290,34,311,08,292,78,032,02,292,78,032,05*6D
$GNGGA,161509.000,4011.89039,N,11137.25983,W,1,10,1.20,0.00,M,1382.48,M,,*63
$GNGLL,4011.89039,N,11137.25983,W,161509.000,A*3D
$GNGSA,A,03,10,15,18,23,24,27,04,05,09,10,11,32,1.2,2.0,2.0*19
$GNRMC,161509,A,4011.89039,N,11137.25983,W,000.0,000.0,250923,000.0,E*70
$GNZDA,161509.000,25,09,2023,00,00*4F
$GNVTG,0.00,T,,M,0.00,N,0.00,K,A*23
$INTEL,KIM,2.0.0.6,144909000,2281,0,0.000,0.000,0,0.000,0.000,0.000,0.000,0.000,0.000*07
$GPGSV,4,1,13,10,52,275,43,15,36,051,42,18,64,094,46,23,72,001,45*7C
$GPGSV,4,2,13,24,20,102,42,27,39,300,41,32,19,201,42,522,52,275,02*49
$GPGSV,4,3,13,530,64,094,05,535,72,001,05,536,20,102,12,539,39,300,10*77
$GPGSV,4,4,13,544,19,201,09*7C
$GAGSV,4,1,14,04,28,046,24,05,36,194,43,09,68,104,24,10,10,118,04*61
$GAGSV,4,2,14,11,36,112,42,34,34,311,42,36,78,032,42,260,28,046,11*5E
$GAGSV,4,3,14,261,36,194,15,265,68,104,09,266,10,118,08,267,36,112,08*6E
$GAGSV,4,4,14,290,34,311,12,292,78,032,02,292,78,032,05*66
$GNGGA,161509.500,4011.89039,N,11137.25984,W,1,10,1.20,0.00,M,1382.48,M,,*61
$GNGLL,4011.89039,N,11137.25984,W,161509.500,A*3F
$GNGSA,A,03,10,15,18,23,24,27,04,05,09,10,11,32,1.2,2.0,2.0*19
$GNRMC,161509,A,4011.89039,N,11137.25984,W,000.0,000.0,250923,000.0,E*77
$GNZDA,161509.500,25,09,2023,00,00*4A
$GNVTG,0.00,T,,M,0.00,N,0.00,K,A*23
$INTEL,KIM,2.0.0.6,144909500,2281,0,0.000,0.000,0,0.000,0.000,0.000,0.000,0.000,0.000*02
$GPGSV,4,1,13,10,52,275,43,15,36,051,42,18,64,094,46,23,72,001,44*7D
$GPGSV,4,2,13,24,20,102,42,27,39,300,41,32,19,201,42,522,52,275,18*42
$GPGSV,4,3,13,530,64,094,08,535,72,001,05,536,20,102,12,539,39,300,02*79
$GPGSV,4,4,13,544,19,201,09*7C
$GAGSV,4,1,14,04,28,046,24,05,36,194,44,09,68,104,24,10,10,118,11*62
$GAGSV,4,2,14,11,36,112,43,34,34,311,42,36,78,032,43,260,28,046,04*5A
$GAGSV,4,3,14,261,36,194,11,265,68,104,09,266,10,118,08,267,36,112,08*6A
$GAGSV,4,4,14,290,34,311,10,292,78,032,02,292,78,032,05*64
$GNGGA,161510.000,4011.89039,N,11137.25987,W,1,10,1.20,0.00,M,1382.49,M,,*6E
$GNGLL,4011.89039,N,11137.25987,W,161510.000,A*31
$GNGSA,A,03,10,15,18,23,24,27,04,05,09,10,11,32,1.2,2.0,2.0*19
$GNRMC,161510,A,4011.89039,N,11137.25987,W,000.0,000.0,250923,000.0,E*7C
$GNZDA,161510.000,25,09,2023,00,00*47
$GNVTG,0.00,T,,M,0.00,N,0.00,K,A*23
$INTEL,KIM,2.0.0.6,144910000,2281,0,0.000,0.000,0,0.000,0.000,0.000,0.000,0.000,0.000*0F
$GPGSV,4,1,13,10,52,275,43,15,36,051,43,18,64,094,47,23,72,001,44*7D
$GPGSV,4,2,13,24,20,102,42,27,39,300,41,32,19,201,42,522,52,275,16*4C
$GPGSV,4,3,13,530,64,094,08,535,72,001,05,536,20,102,11,539,39,300,02*7A
$GPGSV,4,4,13,544,19,201,05*70
$GAGSV,4,1,14,04,28,046,24,05,36,194,43,09,68,104,24,10,10,118,17*63
$GAGSV,4,2,14,11,36,112,42,34,34,311,42,36,78,032,42,260,28,046,09*57
$GAGSV,4,3,14,261,36,194,11,265,68,104,09,266,10,118,11,267,36,112,08*62
$GAGSV,4,4,14,290,34,311,10,292,78,032,02,292,78,032,05*64
$GNGGA,161510.500,4011.89039,N,11137.25990,W,1,10,1.20,0.00,M,1382.50,M,,*65
$GNGLL,4011.89039,N,11137.25990,W,161510.500,A*32
$GNGSA,A,03,10,15,18,23,24,27,04,05,09,10,11,32,1.2,2.0,2.0*19
$GNRMC,161510,A,4011.89039,N,11137.25990,W,000.0,000.0,250923,000.0,E*7A
$GNZDA,161510.500,25,09,2023,00,00*42
$GNVTG,0.00,T,,M,0.00,N,0.00,K,A*23
$INTEL,KIM,2.0.0.6,144910500,2281,0,0.000,0.000,0,0.000,0.000,0.000,0.000,0.000,0.000*0A
$GNGGA,161511.000,4011.89038,N,11137.25993,W,1,10,1.20,0.00,M,1382.51,M,,*62
$GNGLL,4011.89038,N,11137.25993,W,161511.000,A*34
$GNGSA,A,03,10,15,18,23,24,27,04,05,09,10,11,32,1.2,2.0,2.0*19
$GPGSV,4,1,13,10,52,275,43,15,36,051,43,18,64,094,47,23,72,001,45*7C
$GPGSV,4,2,13,24,20,102,42,27,39,300,41,32,19,201,42,522,52,275,14*4E
$GPGSV,4,3,13,530,64,094,08,535,72,001,05,536,20,102,11,539,39,300,21*7B
$GPGSV,4,4,13,544,19,201,05*70
$GAGSV,4,1,14,04,28,046,24,05,36,194,43,09,68,104,24,10,10,118,16*62
$GAGSV,4,2,14,11,36,112,42,34,34,311,42,36,78,032,42,260,28,046,11*5E
$GAGSV,4,3,14,261,36,194,11,265,68,104,09,266,10,118,12,267,36,112,08*61
$GAGSV,4,4,14,290,34,311,10,292,78,032,02,292,78,032,05*64
$GNRMC,161511,A,4011.89038,N,11137.25993,W,000.0,000.0,250923,000.0,E*79
$GNZDA,161511.000,25,09,2023,00,00*46
$GNVTG,0.00,T,,M,0.00,N,0.00,K,A*23
$INTEL,KIM,2.0.0.6,144911000,2281,0,0.000,0.000,0,0.000,0.000,0.000,0.000,0.000,0.000*0E
$GPGSV,4,1,13,10,52,275,43,15,36,051,43,18,64,094,46,23,72,001,45*7D
$GPGSV,4,2,13,24,20,102,42,27,39,300,41,32,19,201,42,522,52,275,14*4E
$GPGSV,4,3,13,530,64,094,08,535,72,001,05,536,20,102,08,539,39,300,19*78
$GPGSV,4,4,13,544,19,201,05*70
$GAGSV,3,1,12,04,28,046,24,05,36,194,43,09,68,104,24,10,10,118,16*63
$GAGSV,3,2,12,11,36,112,42,34,34,311,42,36,78,032,42,260,28,046,10*5E
$GAGSV,3,3,12,261,36,194,11,265,68,104,09,266,10,118,08,290,34,311,10*69
$GNGGA,161511.500,4011.89037,N,11137.25996,W,1,10,1.20,0.00,M,1382.52,M,,*6E
$GNGLL,4011.89037,N,11137.25996,W,161511.500,A*3B
$GNGSA,A,03,10,15,18,23,24,27,04,05,09,10,11,32,1.2,1.0,2.0*1A
$GNRMC,161511,A,4011.89037,N,11137.25996,W,000.0,000.0,250923,000.0,E*73
$GNZDA,161511.500,25,09,2023,00,00*43
$GNVTG,0.00,T,,M,0.00,N,0.00,K,A*23
$INTEL,KIM,2.0.0.6,144911500,2281,0,0.000,0.000,0,0.000,0.000,0.000,0.000,0.000,0.000*0B
$GPGSV,4,1,13,10,52,275,43,15,36,051,43,18,64,094,46,23,72,001,45*7D
$GPGSV,4,2,13,24,20,102,42,27,39,300,40,32,19,201,42,522,52,275,12*49
$GPGSV,4,3,13,530,64,094,21,535,72,001,05,536,20,102,11,539,39,300,17*75
$GPGSV,4,4,13,544,19,201,05*70
$GAGSV,3,1,12,04,28,046,24,05,36,194,44,09,68,104,24,10,10,118,15*67
$GAGSV,3,2,12,11,36,112,43,34,34,311,43,36,78,032,43,260,28,046,09*57
$GAGSV,3,3,12,261,36,194,11,265,68,104,02,266,10,118,08,290,34,311,10*62
$GNGGA,161512.000,4011.89036,N,11137.25999,W,1,10,1.20,0.00,M,1382.54,M,,*60
$GNGLL,4011.89036,N,11137.25999,W,161512.000,A*33
$GNGSA,A,03,10,15,18,23,24,27,04,05,09,10,11,32,1.2,1.0,2.0*1A
$GNRMC,161512,A,4011.89036,N,11137.25999,W,000.0,000.0,250923,000.0,E*7E
$GNZDA,161512.000,25,09,2023,00,00*45
$GNVTG,0.00,T,,M,0.00,N,0.00,K,A*23
$INTEL,KIM,2.0.0.6,144912000,2281,0,0.000,0.000,0,0.000,0.000,0.000,0.000,0.000,0.000*0D
$GPGSV,4,1,13,10,52,275,43,15,36,051,43,18,64,094,47,23,72,001,45*7C
$GPGSV,4,2,13,24,20,102,42,27,39,300,40,32,19,201,42,522,52,275,10*4B
$GPGSV,4,3,13,530,64,094,18,535,72,001,05,536,20,102,07,539,39,300,15*7A
$GPGSV,4,4,13,544,19,201,05*70
$GAGSV,3,1,12,04,28,046,24,05,36,194,43,09,68,104,25,10,10,118,14*60
$GAGSV,3,2,12,11,36,112,42,34,34,311,42,36,78,033,43,260,28,046,09*56
$GAGSV,3,3,12,261,36,194,11,265,68,104,02,266,10,118,10,290,34,311,10*6B
$GNGGA,161512.500,4011.89034,N,11137.26002,W,1,10,1.20,0.00,M,1382.55,M,,*6E
$GNGLL,4011.89034,N,11137.26002,W,161512.500,A*3C
$GNGSA,A,03,10,15,18,23,24,27,04,05,09,10,11,32,1.2,1.0,2.0*1A
$GNRMC,161512,A,4011.89034,N,11137.26002,W,000.0,000.0,250923,000.0,E*74
$GNZDA,161512.500,25,09,2023,00,00*40
$GNVTG,0.00,T,,M,0.00,N,0.00,K,A*23
$INTEL,KIM,2.0.0.6,144912500,2281,0,0.000,0.000,0,0.000,0.000,0.000,0.000,0.000,0.000*08
$GPGSV,4,1,13,10,52,275,43,15,36,051,43,18,64,094,46,23,72,001,45*7D
$GPGSV,4,2,13,24,20,102,42,27,39,300,40,32,19,201,42,522,52,275,04*4E
$GPGSV,4,3,13,530,64,094,17,535,72,001,05,536,20,102,11,539,39,300,13*74
$GPGSV,4,4,13,544,19,201,05,544,19,201,05*7B
$GAGSV,4,1,13,04,28,046,24,05,36,194,44,09,68,104,24,10,10,118,16*62
$GAGSV,4,2,13,11,36,112,43,34,34,311,43,36,78,033,43,260,28,046,09*50
$GAGSV,4,3,13,261,36,194,11,265,68,104,02,266,10,118,11,267,36,112,08*6E
$GAGSV,4,4,13,290,34,311,04*61
$GNGGA,161513.000,4011.89034,N,11137.26005,W,1,10,1.20,0.00,M,1382.57,M,,*6F
$GNGLL,4011.89034,N,11137.26005,W,161513.000,A*3F
$GNGSA,A,03,10,15,18,23,24,27,04,05,09,10,11,32,1.2,1.0,2.0*1A
$GNRMC,161513,A,4011.89034,N,11137.26005,W,000.0,000.0,250923,000.0,E*72
$GNZDA,161513.000,25,09,2023,00,00*44
$GNVTG,0.00,T,,M,0.00,N,0.00,K,A*23
$INTEL,KIM,2.0.0.6,144913000,2281,0,0.000,0.000,0,0.000,0.000,0.000,0.000,0.000,0.000*0C
$GPGSV,4,1,13,10,52,275,43,15,36,051,43,18,64,094,46,23,72,001,45*7D
$GPGSV,4,2,13,24,20,102,42,27,39,300,40,32,19,201,42,522,52,275,04*4E
$GPGSV,4,3,13,530,64,094,15,535,72,001,05,536,20,102,11,539,39,300,12*77
$GPGSV,4,4,13,544,19,201,05*70
$GAGSV,4,1,14,04,28,046,24,05,36,194,43,09,68,104,25,10,10,118,16*63
$GAGSV,4,2,14,11,36,112,42,34,34,311,42,36,78,033,43,260,28,046,09*57
$GAGSV,4,3,14,261,36,194,11,265,68,104,02,266,10,118,11,267,36,112,09*68
$GAGSV,4,4,14,290,34,311,04,292,78,033,09,292,78,033,05*6A
$GNGGA,161513.500,4011.89033,N,11137.26008,W,1,10,1.20,0.00,M,1382.59,M,,*6E
$GNGLL,4011.89033,N,11137.26008,W,161513.500,A*30
$GNGSA,A,03,10,15,18,23,24,27,04,05,09,10,11,32,1.2,1.0,2.0*1A
$GNRMC,161513,A,4011.89033,N,11137.26008,W,000.0,000.0,250923,000.0,E*78
$GNZDA,161513.500,25,09,2023,00,00*41
$GNVTG,0.00,T,,M,0.00,N,0.00,K,A*23
$INTEL,KIM,2.0.0.6,144913500,2281,0,0.000,0.000,0,0.000,0.000,0.000,0.000,0.000,0.000*09
$GPGSV,4,1,13,10,52,275,43,15,36,051,43,18,64,094,47,23,72,001,45*7C
$GPGSV,4,2,13,24,20,102,41,27,39,300,40,32,19,201,42,522,52,275,18*40
$GPGSV,4,3,13,530,64,094,12,535,72,001,05,536,20,102,08,539,39,300,06*7D
$GPGSV,4,4,13,544,19,201,08*7D
$GAGSV,4,1,14,04,28,046,24,05,36,194,43,09,68,104,24,10,10,118,16*62
$GAGSV,4,2,14,11,36,112,43,34,34,311,43,36,78,033,43,260,28,046,09*57
$GAGSV,4,3,14,261,36,194,11,265,68,104,02,266,10,118,02,267,36,112,08*6B
$GAGSV,4,4,14,290,34,311,04,292,78,033,09,292,78,033,05*6A
$GNGGA,161514.000,4011.89031,N,11137.26011,W,1,10,1.20,0.00,M,1382.61,M,,*6D
$GNGLL,4011.89031,N,11137.26011,W,161514.000,A*38
$GNGSA,A,03,10,15,18,23,24,27,04,05,09,10,11,32,1.2,1.0,2.0*1A
$GNRMC,161514,A,4011.89031,N,11137.26011,W,000.0,000.0,250923,000.0,E*75
$GNZDA,161514.000,25,09,2023,00,00*43
$GNVTG,0.00,T,,M,0.00,N,0.00,K,A*23
$INTEL,KIM,2.0.0.6,144914000,2281,0,0.000,0.000,0,0.000,0.000,0.000,0.000,0.000,0.000*0B
$GPGSV,4,1,13,10,52,275,43,15,36,051,42,18,64,094,46,23,72,001,45*7C
$GPGSV,4,2,13,24,20,102,41,27,39,300,40,32,19,201,42,522,52,275,17*4F
$GPGSV,4,3,13,530,64,094,10,535,72,001,05,536,20,102,09,539,39,300,06*7E
$GPGSV,4,4,13,544,19,201,08*7D
$GAGSV,4,1,14,04,28,046,24,05,36,194,44,09,68,104,25,10,10,118,15*67
$GAGSV,4,2,14,11,36,112,43,34,34,311,43,36,78,033,44,260,28,046,09*50
$GAGSV,4,3,14,261,36,194,11,265,68,104,02,266,10,118,02,267,36,112,08*6B
$GAGSV,4,4,14,290,34,311,04,292,78,033,09,292,78,033,05*6A
$GNGGA,161514.500,4011.89031,N,11137.26013,W,1,10,1.20,0.00,M,1382.64,M,,*6F
$GNGLL,4011.89031,N,11137.26013,W,161514.500,A*3F
$GNGSA,A,03,10,15,18,23,24,27,04,05,09,10,11,32,1.2,1.0,2.0*1A
$GNRMC,161514,A,4011.89031,N,11137.26013,W,000.0,000.0,250923,000.0,E*77
$GNZDA,161514.500,25,09,2023,00,00*46
$GNVTG,0.00,T,,M,0.00,N,0.00,K,A*23
$INTEL,KIM,2.0.0.6,144914500,2281,0,0.000,0.000,0,0.000,0.000,0.000,0.000,0.000,0.000*0E
$GPGSV,4,1,13,10,52,275,43,15,36,051,42,18,64,094,46,23,72,001,44*7D
$GPGSV,4,2,13,24,20,102,41,27,39,300,40,32,19,201,42,522,52,275,15*4D
$GPGSV,4,3,13,530,64,094,07,535,72,001,05,536,20,102,02,539,39,300,16*72
$GPGSV,4,4,13,544,19,201,02*77
$GAGSV,4,1,14,04,28,046,24,05,36,194,43,09,68,104,24,10,10,118,14*60
$GAGSV,4,2,14,11,36,112,43,34,34,311,42,36,78,033,43,260,28,046,09*56
$GAGSV,4,3,14,261,36,194,11,265,68,104,02,266,10,118,02,267,36,112,08*6B
$GAGSV,4,4,14,290,34,311,04,292,78,033,09,292,78,033,05*6A
$GNGGA,161515.000,4011.89031,N,11137.26014,W,1,10,1.20,0.00,M,1382.66,M,,*6E
$GNGLL,4011.89031,N,11137.26014,W,161515.000,A*3C
$GNGSA,A,03,10,15,18,23,24,27,04,05,09,10,11,32,1.2,2.0,2.0*19
$GNRMC,161515,A,4011.89031,N,11137.26014,W,000.0,000.0,250923,000.0,E*71
$GNZDA,161515.000,25,09,2023,00,00*42
$GNVTG,0.00,T,,M,0.00,N,0.00,K,A*23
$INTEL,KIM,2.0.0.6,144915000,2281,0,0.000,0.000,0,0.000,0.000,0.000,0.000,0.000,0.000*0A
$GPGSV,4,1,13,10,52,275,44,15,36,051,42,18,64,094,46,23,72,001,45*7B
$GPGSV,4,2,13,24,20,102,41,27,39,300,40,32,19,201,42,522,52,275,13*4B
$GPGSV,4,3,13,530,64,094,04,535,72,001,05,536,20,102,02,539,39,300,13*74
$GPGSV,4,4,13,544,19,201,04*71
$GAGSV,4,1,14,04,28,046,24,05,36,194,43,09,68,104,24,10,10,118,17*63
$GAGSV,4,2,14,11,36,112,43,34,34,311,42,36,78,033,43,260,28,046,09*56
$GAGSV,4,3,14,261,36,194,11,265,68,104,02,266,10,118,12,267,36,112,08*6A
$GAGSV,4,4,14,290,34,311,04,292,78,033,09,292,78,033,05*6A
$GNGGA,161515.500,4011.89031,N,11137.26014,W,1,10,1.20,0.00,M,1382.68,M,,*65
$GNGLL,4011.89031,N,11137.26014,W,161515.500,A*39
$GNGSA,A,03,10,15,18,23,24,27,04,05,09,10,11,32,1.2,2.0,2.0*19
$GNRMC,161515,A,4011.89031,N,11137.26014,W,000.0,000.0,250923,000.0,E*71
$GNZDA,161515.500,25,09,2023,00,00*47
$GNVTG,0.00,T,,M,0.00,N,0.00,K,A*23
$INTEL,KIM,2.0.0.6,144915500,2281,0,0.000,0.000,0,0.000,0.000,0.000,0.000,0.000,0.000*0F
$GPGSV,4,1,13,10,52,275,43,15,36,051,42,18,64,094,46,23,72,001,45*7C
$GPGSV,4,2,13,24,20,102,41,27,39,300,40,32,19,201,41,522,52,275,12*49
$GPGSV,4,3,13,530,64,094,04,535,72,001,05,536,20,102,16,539,39,300,12*70
$GPGSV,4,4,13,544,19,201,05*70
$GAGSV,4,1,14,04,28,046,24,05,36,194,43,09,68,104,25,10,10,118,15*60
$GAGSV,4,2,14,11,36,112,43,34,34,311,42,36,78,033,42,260,28,046,18*57
$GAGSV,4,3,14,261,36,194,11,265,68,104,02,266,10,118,08,267,36,112,05*6C
$GAGSV,4,4,14,290,34,311,04,292,78,033,09,292,78,033,05*6A
$GNGGA,161516.000,4011.89032,N,11137.26014,W,1,10,1.20,0.00,M,1382.71,M,,*68
$GNGLL,4011.89032,N,11137.26014,W,161516.000,A*3C
$GNGSA,A,03,10,15,18,23,24,27,04,05,09,10,11,32,1.2,2.0,2.0*19
$GNRMC,161516,A,4011.89032,N,11137.26014,W,000.0,000.0,250923,000.0,E*71
$GNZDA,161516.000,25,09,2023,00,00*41
$GNVTG,0.00,T,,M,0.00,N,0.00,K,A*23
$INTEL,KIM,2.0.0.6,144916000,2281,0,0.000,0.000,0,0.000,0.000,0.000,0.000,0.000,0.000*09
$GPGSV,4,1,13,10,52,275,44,15,36,051,42,18,64,094,46,23,72,001,45*7B
$GPGSV,4,2,13,24,20,102,41,27,39,300,40,32,19,201,41,522,52,275,11*4A
$GPGSV,4,3,13,530,64,094,07,535,72,001,05,536,20,102,15,539,39,300,10*72
$GPGSV,4,4,13,544,19,201,05*70
$GAGSV,4,1,14,04,28,046,24,05,36,194,43,09,68,104,24,10,10,118,16*62
$GAGSV,4,2,14,11,36,112,42,34,34,311,42,36,78,033,42,260,28,046,14*5A
$GAGSV,4,3,14,261,36,194,11,265,68,104,02,266,10,118,14,267,36,112,07*63
$GAGSV,4,4,14,290,34,311,04,292,78,033,09,292,78,033,05*6A
$GNGGA,161516.500,4011.89031,N,11137.26014,W,1,11,1.10,0.00,M,1382.73,M,,*6E
$GNGLL,4011.89031,N,11137.26014,W,161516.500,A*3A
$GNGSA,A,03,10,15,18,23,24,27,04,05,09,10,11,32,1.1,2.0,2.0*1A
$GNRMC,161516,A,4011.89031,N,11137.26014,W,000.0,000.0,250923,000.0,E*72
$GNZDA,161516.500,25,09,2023,00,00*44
$GNVTG,0.00,T,,M,0.00,N,0.00,K,A*23
$INTEL,KIM,2.0.0.6,144916500,2281,0,0.000,0.000,0,0.000,0.000,0.000,0.000,0.000,0.000*0C
$GPGSV,3,1,12,10,52,275,44,15,36,051,43,18,64,094,46,23,72,001,45*7C
$GPGSV,3,2,12,24,20,102,41,27,39,300,40,32,19,201,41,522,52,275,07*4B
$GPGSV,3,3,12,530,64,094,07,536,20,102,12,539,39,300,09,544,19,201,05*72
$GAGSV,4,1,13,04,28,046,25,05,36,194,44,09,68,104,24,10,10,118,15*60
$GAGSV,4,2,13,11,36,112,43,34,34,311,43,36,78,033,43,260,28,046,07*5E
$GAGSV,4,3,13,265,68,104,02,266,10,118,11,267,36,112,12,290,34,311,04*62
$GAGSV,4,4,13,292,78,033,09*65
$GNGGA,161517.000,4011.89031,N,11137.26015,W,1,10,1.20,0.00,M,1382.75,M,,*6F
$GNGLL,4011.89031,N,11137.26015,W,161517.000,A*3F
$GNGSA,A,03,10,15,18,23,24,27,04,05,09,10,11,32,1.2,2.0,2.0*19
$GNRMC,161517,A,4011.89031,N,11137.26015,W,000.0,000.0,250923,000.0,E*72
$GNZDA,161517.000,25,09,2023,00,00*40
$GNVTG,0.00,T,,M,0.00,N,0.00,K,A*23
$INTEL,KIM,2.0.0.6,144917000,2281,0,0.000,0.000,0,0.000,0.000,0.000,0.000,0.000,0.000*08
$GPGSV,3,1,12,10,52,275,44,15,35,051,43,18,64,094,46,23,72,001,45*7F
$GPGSV,3,2,12,24,20,102,41,27,39,300,40,32,19,201,41,522,52,275,06*4A
$GPGSV,3,3,12,530,64,094,07,536,20,102,08,539,39,300,08,544,19,201,05*78
$GAGSV,4,1,13,04,28,046,24,05,36,194,44,09,68,104,24,10,10,118,15*61
$GAGSV,4,2,13,11,36,112,43,34,34,311,43,36,78,033,43,260,28,046,13*5B
$GAGSV,4,3,13,265,68,104,02,266,10,118,11,267,36,112,12,290,34,311,04*62
$GAGSV,4,4,13,292,78,033,09*65
$GNGGA,161517.500,4011.89030,N,11137.26015,W,1,10,1.20,0.00,M,1382.78,M,,*66
$GNGLL,4011.89030,N,11137.26015,W,161517.500,A*3B
$GNGSA,A,03,10,15,18,23,24,27,04,05,09,10,11,32,1.2,2.0,2.0*19
$GNRMC,161517,A,4011.89030,N,11137.26015,W,000.0,000.0,250923,000.0,E*73
$GNZDA,161517.500,25,09,2023,00,00*45
$GNVTG,0.00,T,,M,0.00,N,0.00,K,A*23
$INTEL,KIM,2.0.0.6,144917500,2281,0,0.000,0.000,0,0.000,0.000,0.000,0.000,0.000,0.000*0D
$GPGSV,3,1,12,10,52,275,44,15,35,051,42,18,64,094,46,23,72,001,45*7E
$GPGSV,3,2,12,24,20,102,41,27,39,299,40,32,19,201,42,522,52,275,06*48
$GPGSV,3,3,12,530,64,094,07,536,20,102,08,539,39,299,09,544,19,201,05*78
$GAGSV,4,1,13,04,28,046,24,05,36,194,44,09,68,104,24,10,10,118,15*61
$GAGSV,4,2,13,11,36,112,43,34,34,311,43,36,78,033,43,260,28,046,09*50
$GAGSV,4,3,13,265,68,104,02,266,10,118,11,267,36,112,10,290,34,311,04*60
$GAGSV,4,4,13,292,78,033,09*65
$GNGGA,161518.000,4011.89031,N,11137.26015,W,1,11,1.10,0.00,M,1382.80,M,,*68
$GNGLL,4011.89031,N,11137.26015,W,161518.000,A*30
$GNGSA,A,03,10,15,18,23,24,27,04,05,09,10,11,32,1.1,2.0,2.0*1A
$GNRMC,161518,A,4011.89031,N,11137.26015,W,000.0,000.0,250923,000.0,E*7D
$GNZDA,161518.000,25,09,2023,00,00*4F
$GNVTG,0.00,T,,M,0.00,N,0.00,K,A*23
$INTEL,KIM,2.0.0.6,144918000,2281,0,0.000,0.000,0,0.000,0.000,0.000,0.000,0.000,0.000*07
$GPGSV,3,1,12,10,52,275,44,15,35,051,42,18,64,094,46,23,72,001,45*7E
$GPGSV,3,2,12,24,20,102,41,27,39,299,40,32,19,201,42,522,52,275,06*48
$GPGSV,3,3,12,530,64,094,08,536,20,102,07,539,39,299,09,544,19,201,05*78
$GAGSV,4,1,13,04,28,046,25,05,36,194,44,09,68,104,24,10,10,118,15*60
$GAGSV,4,2,13,11,36,112,43,34,34,311,43,36,78,033,43,260,28,046,10*58
$GAGSV,4,3,13,265,68,104,02,266,10,118,11,267,36,112,06,290,34,311,04*67
$GAGSV,4,4,13,292,78,033,09*65
$GNGGA,161518.500,4011.89031,N,11137.26015,W,1,10,1.20,0.00,M,1382.82,M,,*6D
$GNGLL,4011.89031,N,11137.26015,W,161518.500,A*35
$GNGSA,A,03,10,15,18,23,24,27,04,05,09,10,11,32,1.2,2.0,2.0*19
$GNRMC,161518,A,4011.89031,N,11137.26015,W,000.4,019.9,250923,000.0,E*78
$GNZDA,161518.500,25,09,2023,00,00*4A
$GNVTG,19.90,T,,M,0.38,N,0.70,K,A*1E
$INTEL,KIM,2.0.0.6,144918500,2281,0,0.000,0.000,0,0.347,0.697,-0.416,0.183,0.066,0.861*21
$GPGSV,3,1,12,10,52,275,44,15,35,051,41,18,64,094,46,23,72,001,45*7D
$GPGSV,3,2,12,24,20,102,41,27,39,299,40,32,19,201,42,522,52,275,13*4C
$GPGSV,3,3,12,530,64,094,05,536,20,102,09,539,39,299,09,544,19,201,05*7B
$GAGSV,4,1,13,04,28,046,24,05,36,194,43,09,68,104,24,10,10,118,16*65
$GAGSV,4,2,13,11,36,112,43,34,34,311,43,36,78,033,43,260,28,046,07*5E
$GAGSV,4,3,13,265,68,104,09,266,10,118,11,267,36,112,07,290,34,311,04*6D
$GAGSV,4,4,13,292,78,033,09*65
$GNGGA,161519.000,4011.89033,N,11137.26014,W,1,10,1.20,0.00,M,1382.83,M,,*6B
$GNGLL,4011.89033,N,11137.26014,W,161519.000,A*32
$GNGSA,A,03,10,15,18,23,24,27,04,05,09,10,11,32,1.2,2.0,2.0*19
$GNRMC,161519,A,4011.89033,N,11137.26014,W,000.5,021.1,250923,000.0,E*78
$GNZDA,161519.000,25,09,2023,00,00*4E
$GNVTG,21.10,T,,M,0.49,N,0.90,K,A*15
$INTEL,KIM,2.0.0.6,144919000,2281,0,0.000,0.000,0,0.342,0.620,-0.288,0.233,0.090,0.722*24
$GNGGA,161519.500,4011.89034,N,11137.26013,W,1,10,1.20,0.00,M,1382.84,M,,*69
$GNGLL,4011.89034,N,11137.26013,W,161519.500,A*37
$GNGSA,A,03,10,15,18,23,24,27,04,05,09,10,11,32,1.2,2.0,2.0*19
$GPGSV,3,1,12,10,52,275,44,15,35,051,41,18,64,094,46,23,72,001,45*7D
$GPGSV,3,2,12,24,20,102,41,27,39,299,40,32,19,201,42,522,52,275,10*4F
$GPGSV,3,3,12,530,64,094,02,536,20,102,09,539,39,299,09,544,19,201,05*7C
$GAGSV,4,1,14,04,28,046,24,05,36,194,43,09,68,104,24,10,10,118,12*66
$GAGSV,4,2,14,11,36,112,43,34,34,311,43,36,78,033,43,260,28,046,10*5F
$GAGSV,4,3,14,261,36,194,10,265,68,104,09,266,10,118,07,267,36,112,09*65
$GAGSV,4,4,14,290,34,311,04,292,78,033,09,292,78,033,09*66
$GNRMC,161519,A,4011.89034,N,11137.26013,W,000.2,021.1,250923,000.0,E*7F
$GNZDA,161519.500,25,09,2023,00,00*4B
$GNVTG,21.10,T,,M,0.22,N,0.40,K,A*15
$INTEL,KIM,2.0.0.6,144919500,2281,0,0.000,0.000,0,0.179,0.343,-0.190,0.104,0.040,0.417*2E
$GPGSV,3,1,12,10,52,275,44,15,35,051,41,18,64,094,46,23,72,001,45*7D
$GPGSV,3,2,12,24,20,102,41,27,39,299,40,32,19,201,42,522,52,275,09*47
$GPGSV,3,3,12,530,64,094,07,536,20,102,04,539,39,299,09,544,19,201,05*74
$GAGSV,4,1,14,04,28,046,24,05,36,194,44,09,68,104,24,10,10,118,14*67
$GAGSV,4,2,14,11,36,112,43,34,34,311,43,36,78,033,43,260,28,046,10*5F
$GAGSV,4,3,14,261,36,194,10,265,68,104,14,266,10,118,07,267,36,112,09*69
$GAGSV,4,4,14,290,34,311,04,292,78,033,04,292,78,033,09*6B
$GNGGA,161520.000,4011.89037,N,11137.26010,W,1,10,1.20,0.00,M,1382.83,M,,*61
$GNGLL,4011.89037,N,11137.26010,W,161520.000,A*38
$GNGSA,A,03,10,15,18,23,24,27,04,05,09,10,11,32,1.2,2.0,2.0*19
$GNRMC,161520,A,4011.89037,N,11137.26010,W,000.4,021.1,250923,000.0,E*73
$GNZDA,161520.000,25,09,2023,00,00*44
$GNVTG,21.10,T,,M,0.38,N,0.70,K,A*1D
$INTEL,KIM,2.0.0.6,144920000,2281,0,0.000,0.000,0,0.272,0.497,-0.238,0.181,0.070,0.583*24
$GPGSV,3,1,12,10,52,275,44,15,35,051,41,18,64,094,46,23,72,001,45*7D
$GPGSV,3,2,12,24,20,102,41,27,39,299,40,32,19,201,42,522,52,275,09*47
$GPGSV,3,3,12,530,64,094,07,536,20,102,04,539,39,299,09,544,19,201,05*74
$GAGSV,4,1,14,04,28,046,24,05,36,194,44,09,68,104,25,10,10,118,15*67
$GAGSV,4,2,14,11,36,112,43,34,34,311,43,36,78,033,43,260,28,046,10*5F
$GAGSV,4,3,14,261,36,194,07,265,68,104,12,266,10,118,07,267,36,112,06*66
$GAGSV,4,4,14,290,34,311,04,292,78,033,05,292,78,033,09*6A
$GNGGA,161520.500,4011.89042,N,11137.26005,W,1,10,1.20,0.00,M,1382.81,M,,*60
$GNGLL,4011.89042,N,11137.26005,W,161520.500,A*3B
$GNGSA,A,03,10,15,18,23,24,27,04,05,09,10,11,32,1.2,2.0,2.0*19
$GNRMC,161520,A,4011.89042,N,11137.26005,W,000.4,021.1,250923,000.0,E*75
$GNZDA,161520.500,25,09,2023,00,00*41
$GNVTG,21.10,T,,M,0.38,N,0.70,K,A*1D
$INTEL,KIM,2.0.0.6,144920500,2281,0,0.000,0.000,0,0.327,0.635,-0.363,0.181,0.070,0.778*23
$GPGSV,3,1,12,10,52,275,44,15,35,051,41,18,64,094,46,23,72,001,44*7C
$GPGSV,3,2,12,24,20,102,41,27,39,299,39,32,19,201,42,522,52,275,08*48
$GPGSV,3,3,12,530,64,094,07,536,20,102,04,539,39,299,09,544,19,201,05*74
$GAGSV,4,1,14,04,28,046,24,05,36,194,43,09,68,104,25,10,10,118,14*61
$GAGSV,4,2,14,11,36,112,42,34,34,311,42,36,78,033,42,260,28,046,06*59
$GAGSV,4,3,14,261,36,194,09,265,68,104,11,266,10,118,07,267,36,112,06*6B
$GAGSV,4,4,14,290,34,311,04,292,78,033,05,292,78,033,09*6A
$GNGGA,161521.000,4011.89045,N,11137.26000,W,1,10,1.20,0.00,M,1382.77,M,,*6F
$GNGLL,4011.89045,N,11137.26000,W,161521.000,A*3D
$GNGSA,A,03,10,15,18,23,24,27,04,05,09,10,11,32,1.2,2.0,3.0*18
$GNRMC,161521,A,4011.89045,N,11137.26000,W,000.1,021.1,250923,000.0,E*73
$GNZDA,161521.000,25,09,2023,00,00*45
$GNVTG,21.10,T,,M,0.05,N,0.10,K,A*15
$INTEL,KIM,2.0.0.6,144921000,2281,0,0.000,0.000,0,0.062,0.130,-0.088,0.026,0.010,0.167*23
$GPGSV,3,1,12,10,52,275,44,15,35,051,42,18,64,094,46,23,72,001,45*7E
$GPGSV,3,2,12,24,20,102,41,27,39,299,40,32,19,201,42,522,52,275,06*48
$GPGSV,3,3,12,530,64,094,04,536,20,102,04,539,39,299,09,544,19,201,05*77
$GAGSV,4,1,14,04,28,046,24,05,36,194,43,09,68,104,24,10,10,118,11*65
$GAGSV,4,2,14,11,36,112,42,34,34,311,42,36,78,033,42,260,28,046,06*59
$GAGSV,4,3,14,261,36,194,04,265,68,104,12,266,10,118,14,267,36,112,06*67
$GAGSV,4,4,14,290,34,311,02,292,78,033,05,292,78,033,09*6C
$GNGGA,161521.500,4011.89051,N,11137.25989,W,1,10,1.20,0.00,M,1382.71,M,,*62
$GNGLL,4011.89051,N,11137.25989,W,161521.500,A*36
$GNGSA,A,03,10,15,18,23,24,27,04,05,09,10,11,32,1.2,2.0,3.0*18
$GNRMC,161521,A,4011.89051,N,11137.25989,W,000.0,000.0,250923,000.0,E*7E
$GNZDA,161521.500,25,09,2023,00,00*40
$GNVTG,0.00,T,,M,0.00,N,0.00,K,A*23
$INTEL,KIM,2.0.0.6,144921500,2281,0,0.000,0.000,0,0.000,0.000,0.000,0.000,0.000,0.000*08
$GNGGA,161522.000,4011.89047,N,11137.25990,W,1,10,1.20,0.00,M,1382.65,M,,*6E
$GNGLL,4011.89047,N,11137.25990,W,161522.000,A*3F
$GNGSA,A,03,10,15,18,23,24,27,04,05,09,10,11,32,1.2,2.0,3.0*18
$GPGSV,3,1,12,10,52,275,44,15,35,051,42,18,64,094,46,23,72,001,45*7E
$GPGSV,3,2,12,24,20,102,41,27,39,299,40,32,19,201,42,522,52,275,06*48
$GPGSV,3,3,12,530,64,094,07,536,20,102,04,539,39,299,09,544,19,201,05*74
$GAGSV,4,1,14,04,28,046,24,05,36,194,43,09,68,104,24,10,10,118,15*61
$GAGSV,4,2,14,11,36,112,43,34,34,311,43,36,78,033,43,260,28,046,06*58
$GAGSV,4,3,14,261,36,194,02,265,68,104,05,266,10,118,13,267,36,112,06*60
$GAGSV,4,4,14,290,34,311,02,292,78,033,12,292,78,033,09*6A
$GNRMC,161522,A,4011.89047,N,11137.25990,W,000.0,000.0,250923,000.0,E*72
$GNZDA,161522.000,25,09,2023,00,00*46
$GNVTG,0.00,T,,M,0.00,N,0.00,K,A*23
$INTEL,KIM,2.0.0.6,144922000,2281,0,0.000,0.000,0,0.000,0.000,0.000,0.000,0.000,0.000*0E
$GPGSV,3,1,11,10,52,275,44,15,35,051,43,18,64,094,46,23,72,001,45*7C
$GPGSV,3,2,11,24,20,102,41,27,39,299,40,32,19,201,43,522,52,275,06*4A
$GPGSV,3,3,11,530,64,094,04,536,20,102,06,539,39,299,07*73
$GAGSV,4,1,14,04,28,046,24,05,36,194,43,09,68,104,24,10,10,118,14*60
$GAGSV,4,2,14,11,36,112,42,34,34,311,42,36,78,033,43,260,28,046,07*59
$GAGSV,4,3,14,261,36,194,02,265,68,104,05,266,10,118,12,267,36,112,06*61
$GAGSV,4,4,14,290,34,311,02,292,78,033,12,292,78,033,12*60
$GNGGA,161522.500,4011.89042,N,11137.25991,W,1,10,1.20,0.00,M,1382.60,M,,*6A
$GNGLL,4011.89042,N,11137.25991,W,161522.500,A*3E
$GNGSA,A,03,10,15,18,23,24,27,04,05,09,10,11,32,1.2,2.0,3.0*18
$GNRMC,161522,A,4011.89042,N,11137.25991,W,000.0,000.0,250923,000.0,E*76
$GNZDA,161522.500,25,09,2023,00,00*43
$GNVTG,0.00,T,,M,0.00,N,0.00,K,A*23
$INTEL,KIM,2.0.0.6,144922500,2281,0,0.000,0.000,0,0.000,0.000,0.000,0.000,0.000,0.000*0B
$GPGSV,3,1,12,10,52,275,44,15,35,051,43,18,64,094,46,23,72,001,45*7F
$GPGSV,3,2,12,24,20,102,41,27,39,299,40,32,19,201,42,522,52,275,06*48
$GPGSV,3,3,12,530,64,094,06,535,72,001,04,536,20,102,08,539,39,299,07*7F
$GAGSV,4,1,14,04,28,046,24,05,36,194,43,09,68,104,25,10,10,118,11*64
$GAGSV,4,2,14,11,36,112,42,34,34,311,43,36,78,033,42,260,28,046,04*5A
$GAGSV,4,3,14,261,36,194,12,265,68,104,05,266,10,118,08,267,36,112,06*6B
$GAGSV,4,4,14,290,34,311,02,292,78,033,06,292,78,033,09*6F
$GNGGA,161523.000,4011.89037,N,11137.25991,W,1,10,1.20,0.00,M,1382.56,M,,*69
$GNGLL,4011.89037,N,11137.25991,W,161523.000,A*38
$GNGSA,A,03,10,15,18,23,24,27,04,05,09,10,11,32,1.2,2.0,2.0*19
$GNRMC,161523,A,4011.89037,N,11137.25991,W,000.0,000.0,250923,000.0,E*75
$GNZDA,161523.000,25,09,2023,00,00*47
$GNVTG,0.00,T,,M,0.00,N,0.00,K,A*23
$INTEL,KIM,2.0.0.6,144923000,2281,0,0.000,0.000,0,0.000,0.000,0.000,0.000,0.000,0.000*0F
$GPGSV,3,1,12,10,52,275,44,15,35,051,43,18,64,094,46,23,72,001,45*7F
$GPGSV,3,2,12,24,20,102,41,27,39,299,40,32,19,201,42,522,52,275,06*48
$GPGSV,3,3,12,530,64,094,05,535,72,001,04,536,20,102,11,539,39,299,07*74
$GAGSV,4,1,14,04,28,046,24,05,36,194,44,09,68,104,25,10,10,118,09*6A
$GAGSV,4,2,14,11,36,112,43,34,34,311,43,36,78,033,43,260,28,046,04*5A
$GAGSV,4,3,14,261,36,194,14,265,68,104,04,266,10,118,10,267,36,112,09*6A
$GAGSV,4,4,14,290,34,311,02,292,78,033,08,292,78,033,09*61
$GNGGA,161523.500,4011.89033,N,11137.25991,W,1,10,1.20,0.00,M,1382.53,M,,*6D
$GNGLL,4011.89033,N,11137.25991,W,161523.500,A*39
$GNGSA,A,03,10,15,18,23,24,27,04,05,09,10,11,32,1.2,2.0,2.0*19
$GNRMC,161523,A,4011.89033,N,11137.25991,W,000.0,000.0,250923,000.0,E*71
$GNZDA,161523.500,25,09,2023,00,00*42
$GNVTG,0.00,T,,M,0.00,N,0.00,K,A*23
$INTEL,KIM,2.0.0.6,144923500,2281,0,0.000,0.000,0,0.000,0.000,0.000,0.000,0.000,0.000*0A
$GPGSV,3,1,12,10,52,275,44,15,35,051,42,18,64,094,46,23,72,001,45*7E
$GPGSV,3,2,12,24,20,102,41,27,39,299,40,32,19,201,42,522,52,275,06*48
$GPGSV,3,3,12,530,64,094,05,535,72,001,09,536,20,102,10,539,39,299,07*78
$GAGSV,4,1,14,04,28,046,25,05,36,194,43,09,68,104,24,10,10,118,09*6D
$GAGSV,4,2,14,11,36,112,42,34,34,311,42,36,78,033,42,260,28,046,04*5B
$GAGSV,4,3,14,261,36,194,13,265,68,104,04,266,10,118,09,267,36,112,02*6E
$GAGSV,4,4,14,290,34,311,02,292,78,033,08,292,78,033,09*61
$GNGGA,161524.000,4011.89030,N,11137.25987,W,1,10,1.20,0.00,M,1382.50,M,,*68
$GNGLL,4011.89030,N,11137.25987,W,161524.000,A*3F
$GNGSA,A,03,10,15,18,23,24,27,04,05,09,10,11,32,1.2,2.0,2.0*19
$GNRMC,161524,A,4011.89030,N,11137.25987,W,000.0,000.0,250923,000.0,E*72
$GNZDA,161524.000,25,09,2023,00,00*40
$GNVTG,0.00,T,,M,0.00,N,0.00,K,A*23
$INTEL,KIM,2.0.0.6,144924000,2281,0,0.000,0.000,0,0.000,0.000,0.000,0.000,0.000,0.000*08
$GPGSV,3,1,12,10,52,275,44,15,35,051,42,18,64,094,46,23,72,001,45*7E
$GPGSV,3,2,12,24,20,102,41,27,39,299,40,32,19,201,42,522,52,275,06*48
$GPGSV,3,3,12,530,64,094,06,535,72,001,09,536,20,102,09,539,39,299,07*73
$GAGSV,4,1,14,04,28,046,24,05,36,194,43,09,68,104,24,10,10,118,09*6C
$GAGSV,4,2,14,11,36,112,43,34,34,311,42,36,78,033,43,260,28,046,02*5D
$GAGSV,4,3,14,261,36,194,13,265,68,104,04,266,10,118,09,267,36,112,02*6E
$GAGSV,4,4,14,290,34,311,02,292,78,033,08,292,78,033,09*61
$GNGGA,161524.500,4011.89027,N,11137.25982,W,1,10,1.20,0.00,M,1382.48,M,,*67
$GNGLL,4011.89027,N,11137.25982,W,161524.500,A*39
$GNGSA,A,03,10,15,18,23,24,27,04,05,09,10,11,32,1.2,2.0,2.0*19
$GNRMC,161524,A,4011.89027,N,11137.25982,W,000.0,000.0,250923,000.0,E*71
$GNZDA,161524.500,25,09,2023,00,00*45
$GNVTG,0.00,T,,M,0.00,N,0.00,K,A*23
$INTEL,KIM,2.0.0.6,144924500,2281,0,0.000,0.000,0,0.000,0.000,0.000,0.000,0.000,0.000*0D
$GPGSV,3,1,12,10,52,275,44,15,35,051,42,18,64,094,46,23,72,001,45*7E
$GPGSV,3,2,12,24,20,102,41,27,39,299,40,32,19,201,42,522,52,275,06*48
$GPGSV,3,3,12,530,64,094,07,535,72,001,09,536,20,102,08,539,39,299,07*73
$GAGSV,4,1,14,04,28,046,24,05,36,194,44,09,68,104,24,10,10,118,08*6A
$GAGSV,4,2,14,11,36,112,43,34,34,311,43,36,78,033,43,260,28,046,07*59
$GAGSV,4,3,14,261,36,194,13,265,68,104,09,266,10,118,09,267,36,112,13*63
$GAGSV,4,4,14,290,34,311,02,292,78,033,08,292,78,033,09*61
$GNGGA,161525.000,4011.89024,N,11137.25978,W,1,10,1.20,0.00,M,1382.46,M,,*6B
$GNGLL,4011.89024,N,11137.25978,W,161525.000,A*3B
$GNGSA,A,03,10,15,18,23,24,27,04,05,09,10,11,32,1.2,2.0,2.0*19
$GNRMC,161525,A,4011.89024,N,11137.25978,W,000.0,000.0,250923,000.0,E*76
$GNZDA,161525.000,25,09,2023,00,00*41
$GNVTG,0.00,T,,M,0.00,N,0.00,K,A*23
$INTEL,KIM,2.0.0.6,144925000,2281,0,0.000,0.000,0,0.000,0.000,0.000,0.000,0.000,0.000*09
$GPGSV,3,1,12,10,52,275,44,15,35,051,42,18,64,094,46,23,72,001,45*7E
$GPGSV,3,2,12,24,20,102,41,27,39,299,40,32,19,201,42,522,52,275,06*48
$GPGSV,3,3,12,530,64,094,05,535,72,001,02,536,20,102,08,539,39,299,07*7A
$GAGSV,4,1,14,04,28,046,24,05,36,194,44,09,68,104,24,10,10,118,06*64
$GAGSV,4,2,14,11,36,112,43,34,34,311,43,36,78,033,43,260,28,046,12*5D
$GAGSV,4,3,14,261,36,194,13,265,68,104,12,266,10,118,09,267,36,112,12*68
$GAGSV,4,4,14,290,34,311,05,292,78,033,08,292,78,033,09*66
$GNGGA,161525.500,4011.89024,N,11137.25977,W,1,10,1.20,0.00,M,1382.44,M,,*63
$GNGLL,4011.89024,N,11137.25977,W,161525.500,A*31
$GNGSA,A,03,10,15,18,23,24,27,04,05,09,10,11,32,1.2,2.0,2.0*19
$GNRMC,161525,A,4011.89024,N,11137.25977,W,000.0,000.0,250923,000.0,E*79
$GNZDA,161525.500,25,09,2023,00,00*44
$GNVTG,0.00,T,,M,0.00,N,0.00,K,A*23
$INTEL,KIM,2.0.0.6,144925500,2281,0,0.000,0.000,0,0.000,0.000,0.000,0.000,0.000,0.000*0C
$GPGSV,3,1,12,10,52,275,44,15,35,051,42,18,64,094,46,23,72,001,45*7E
$GPGSV,3,2,12,24,20,102,41,27,39,299,40,32,19,201,42,522,52,275,06*48
$GPGSV,3,3,12,530,64,094,05,535,72,001,07,536,20,102,08,539,39,299,07*7F
$GAGSV,4,1,14,04,28,046,24,05,36,194,43,09,68,104,24,10,10,118,06*63
$GAGSV,4,2,14,11,36,112,43,34,34,311,43,36,78,033,43,260,28,046,15*5A
$GAGSV,4,3,14,261,36,194,13,265,68,104,10,266,10,118,09,267,36,112,10*68
$GAGSV,4,4,14,290,34,311,08,292,78,033,08,292,78,033,09*6B
$GNGGA,161526.000,4011.89023,N,11137.25980,W,1,10,1.20,0.00,M,1382.42,M,,*6C
$GNGLL,4011.89023,N,11137.25980,W,161526.000,A*38
$GNGSA,A,03,10,15,18,23,24,27,04,05,09,10,11,32,1.2,2.0,2.0*19
$GNRMC,161526,A,4011.89023,N,11137.25980,W,000.0,000.0,250923,000.0,E*75
$GNZDA,161526.000,25,09,2023,00,00*42
$GNVTG,0.00,T,,M,0.00,N,0.00,K,A*23
$INTEL,KIM,2.0.0.6,144926000,2281,0,0.000,0.000,0,0.000,0.000,0.000,0.000,0.000,0.000*0A
$GPGSV,3,1,12,10,52,275,44,15,35,051,42,18,64,094,46,23,72,001,45*7E
$GPGSV,3,2,12,24,20,102,41,27,39,299,41,32,19,201,42,522,52,275,06*49
$GPGSV,3,3,12,530,64,094,05,535,72,001,07,536,20,102,08,539,39,299,07*7F
$GAGSV,4,1,14,04,28,046,24,05,36,194,44,09,68,104,24,10,10,118,08*6A
$GAGSV,4,2,14,11,36,112,43,34,34,311,43,36,78,033,43,260,28,046,13*5C
$GAGSV,4,3,14,261,36,194,06,265,68,104,07,266,10,118,09,267,36,112,04*6F
$GAGSV,4,4,14,290,34,311,10,292,78,033,08,292,78,033,09*62
$GNGGA,161526.500,4011.89022,N,11137.25982,W,1,10,1.20,0.00,M,1382.40,M,,*68
$GNGLL,4011.89022,N,11137.25982,W,161526.500,A*3E
$GNGSA,A,03,10,15,18,23,24,27,04,05,09,10,11,32,1.2,2.0,2.0*19
$GNRMC,161526,A,4011.89022,N,11137.25982,W,000.0,000.0,250923,000.0,E*76
$GNZDA,161526.500,25,09,2023,00,00*47
$GNVTG,0.00,T,,M,0.00,N,0.00,K,A*23
$INTEL,KIM,2.0.0.6,144926500,2281,0,0.000,0.000,0,0.000,0.000,0.000,0.000,0.000,0.000*0F
$GPGSV,3,1,12,10,52,275,44,15,35,051,42,18,64,094,46,23,72,001,44*7F
$GPGSV,3,2,12,24,20,102,41,27,39,299,40,32,19,201,41,522,52,275,06*4B
$GPGSV,3,3,12,530,64,094,05,535,72,001,07,536,20,102,08,539,39,299,07*7F
$GAGSV,4,1,14,04,28,046,24,05,36,194,43,09,68,104,23,10,10,118,08*6A
$GAGSV,4,2,14,11,36,112,42,34,34,311,42,36,78,033,42,260,28,046,07*58
$GAGSV,4,3,14,261,36,194,02,265,68,104,10,266,10,118,04,267,36,112,04*60
$GAGSV,4,4,14,290,34,311,10,292,78,033,08,292,78,033,09*62
$GNGGA,161527.000,4011.89022,N,11137.25983,W,1,10,1.20,0.00,M,1382.39,M,,*63
$GNGLL,4011.89022,N,11137.25983,W,161527.000,A*3B
$GNGSA,A,03,10,15,18,23,24,27,04,05,09,10,11,32,1.2,2.0,2.0*19
$GNRMC,161527,A,4011.89022,N,11137.25983,W,000.0,000.0,250923,000.0,E*76
$GNZDA,161527.000,25,09,2023,00,00*43
$GNVTG,0.00,T,,M,0.00,N,0.00,K,A*23
$INTEL,KIM,2.0.0.6,144927000,2281,0,0.000,0.000,0,0.000,0.000,0.000,0.000,0.000,0.000*0B
$GPGSV,3,1,12,10,52,275,44,15,35,051,42,18,64,094,46,23,72,001,45*7E
$GPGSV,3,2,12,24,20,102,41,27,39,299,40,32,19,201,42,522,52,275,06*48
$GPGSV,3,3,12,530,64,094,05,535,72,001,02,536,20,102,07,539,39,299,07*75
$GAGSV,4,1,14,04,28,046,24,05,36,194,43,09,68,104,24,10,10,118,08*6D
$GAGSV,4,2,14,11,36,112,42,34,34,311,42,36,78,033,42,260,28,046,12*5C
$GAGSV,4,3,14,261,36,194,11,265,68,104,11,266,10,118,04,267,36,112,04*63
$GAGSV,4,4,14,290,34,311,10,292,78,033,08,292,78,033,09*62
$GNGGA,161527.500,4011.89024,N,11137.25987,W,1,10,1.20,0.00,M,1382.38,M,,*65
$GNGLL,4011.89024,N,11137.25987,W,161527.500,A*3C
$GNGSA,A,03,10,15,18,23,24,27,04,05,09,10,11,32,1.2,2.0,2.0*19
$GNRMC,161527,A,4011.89024,N,11137.25987,W,000.0,000.0,250923,000.0,E*74
$GNZDA,161527.500,25,09,2023,00,00*46
$GNVTG,0.00,T,,M,0.00,N,0.00,K,A*23
$INTEL,KIM,2.0.0.6,144927500,2281,0,0.000,0.000,0,0.000,0.000,0.000,0.000,0.000,0.000*0E
$GPGSV,3,1,11,10,52,275,44,15,35,051,41,18,64,094,46,23,72,001,45*7E
$GPGSV,3,2,11,24,20,102,41,27,39,299,41,32,19,201,42,530,64,094,05*42
$GPGSV,3,3,11,535,72,001,02,536,20,102,08,539,39,299,20*70
$GAGSV,4,1,14,04,28,046,24,05,36,194,43,09,68,104,24,10,10,118,08*6D
$GAGSV,4,2,14,11,36,112,42,34,34,311,43,36,78,033,43,260,28,046,13*5D
$GAGSV,4,3,14,261,36,194,10,265,68,104,02,266,10,118,04,267,36,112,04*60
$GAGSV,4,4,14,290,34,311,10,292,78,033,09,292,78,033,08*62
$GNGGA,161528.000,4011.89027,N,11137.25992,W,1,10,1.20,0.00,M,1382.37,M,,*67
$GNGLL,4011.89027,N,11137.25992,W,161528.000,A*31
$GNGSA,A,03,10,15,18,23,24,27,04,05,09,10,11,32,1.2,2.0,2.0*19
$GNRMC,161528,A,4011.89027,N,11137.25992,W,000.0,000.0,250923,000.0,E*7C
$GNZDA,161528.000,25,09,2023,00,00*4C
$GNVTG,0.00,T,,M,0.00,N,0.00,K,A*23
$INTEL,KIM,2.0.0.6,144928000,2281,0,0.000,0.000,0,0.000,0.000,0.000,0.000,0.000,0.000*04
$GPGSV,3,1,11,10,52,275,44,15,35,051,41,18,64,094,46,23,72,001,45*7E
$GPGSV,3,2,11,24,20,102,41,27,39,299,40,32,19,201,41,530,64,094,05*40
$GPGSV,3,3,11,535,72,001,02,536,20,102,02,539,39,299,18*71
$GAGSV,4,1,14,04,28,046,24,05,36,194,44,09,68,104,23,10,10,118,08*6D
$GAGSV,4,2,14,11,36,112,43,34,34,311,43,36,78,033,43,260,28,046,12*5D
$GAGSV,4,3,14,261,36,194,11,265,68,104,02,266,10,118,04,267,36,112,04*61
$GAGSV,4,4,14,290,34,311,10,292,78,033,09,292,78,033,08*62
$GNGGA,161528.500,4011.89028,N,11137.25995,W,1,10,1.20,0.00,M,1382.36,M,,*6B
$GNGLL,4011.89028,N,11137.25995,W,161528.500,A*3C
$GNGSA,A,03,10,15,18,23,24,27,04,05,09,10,11,32,1.2,2.0,2.0*19
$GNRMC,161528,A,4011.89028,N,11137.25995,W,000.0,000.0,250923,000.0,E*74
$GNZDA,161528.500,25,09,2023,00,00*49
$GNVTG,0.00,T,,M,0.00,N,0.00,K,A*23
$INTEL,KIM,2.0.0.6,144928500,2281,0,0.000,0.000,0,0.000,0.000,0.000,0.000,0.000,0.000*01
$GPGSV,3,1,11,10,52,275,44,15,35,051,41,18,64,094,46,23,72,002,45*7D
$GPGSV,3,2,11,24,20,102,41,27,39,299,40,32,19,201,41,530,64,094,05*40
$GPGSV,3,3,11,535,72,002,02,536,20,102,08,539,39,299,15*75
$GAGSV,4,1,14,04,28,046,24,05,36,194,44,09,68,104,24,10,10,118,11*62
$GAGSV,4,2,14,11,36,112,43,34,34,311,43,36,78,033,43,260,28,046,10*5F
$GAGSV,4,3,14,261,36,194,07,265,68,104,02,266,10,118,04,267,36,112,04*66
$GAGSV,4,4,14,290,34,311,10,292,78,033,08,292,78,033,08*63
$GNGGA,161529.000,4011.89028,N,11137.25996,W,1,10,1.20,0.00,M,1382.36,M,,*6C
$GNGLL,4011.89028,N,11137.25996,W,161529.000,A*3B
$GNGSA,A,03,10,15,18,23,24,27,04,05,09,10,11,32,1.2,1.0,2.0*1A
$GNRMC,161529,A,4011.89028,N,11137.25996,W,000.0,000.0,250923,000.0,E*76
$GNZDA,161529.000,25,09,2023,00,00*4D
$GNVTG,0.00,T,,M,0.00,N,0.00,K,A*23
$INTEL,KIM,2.0.0.6,144929000,2281,0,0.000,0.000,0,0.000,0.000,0.000,0.000,0.000,0.000*05
$GPGSV,3,1,11,10,52,275,44,15,35,051,41,18,64,094,46,23,72,002,45*7D
$GPGSV,3,2,11,24,20,102,41,27,39,299,40,32,19,201,41,530,64,094,05*40
$GPGSV,3,3,11,535,72,002,02,536,20,102,04,539,39,299,14*78
$GAGSV,4,1,14,04,28,046,25,05,36,194,44,09,68,104,24,10,10,118,11*63
$GAGSV,4,2,14,11,36,112,42,34,34,311,43,36,78,033,43,260,28,046,11*5F
$GAGSV,4,3,14,261,36,194,07,265,68,104,02,266,10,118,08,267,36,112,02*6C
$GAGSV,4,4,14,290,34,311,10,292,78,033,12,292,78,033,08*68
$GNGGA,161529.500,4011.89027,N,11137.25996,W,1,10,1.20,0.00,M,1382.35,M,,*65
$GNGLL,4011.89027,N,11137.25996,W,161529.500,A*31
$GNGSA,A,03,10,15,18,23,24,27,04,05,09,10,11,32,1.2,2.0,2.0*19
$GNRMC,161529,A,4011.89027,N,11137.25996,W,000.0,000.0,250923,000.0,E*79
$GNZDA,161529.500,25,09,2023,00,00*48
$GNVTG,0.00,T,,M,0.00,N,0.00,K,A*23
$INTEL,KIM,2.0.0.6,144929500,2281,0,0.000,0.000,0,0.000,0.000,0.000,0.000,0.000,0.000*00
$GPGSV,3,1,11,10,52,275,44,15,35,051,41,18,64,094,46,23,72,002,45*7D
$GPGSV,3,2,11,24,20,102,41,27,39,299,40,32,19,201,42,530,64,094,05*43
$GPGSV,3,3,11,535,72,002,02,536,20,102,04,539,39,299,12*7E
$GAGSV,4,1,14,04,28,046,24,05,36,194,44,09,68,104,24,10,10,118,13*60
$GAGSV,4,2,14,11,36,112,42,34,34,311,43,36,78,033,43,260,28,046,17*59
$GAGSV,4,3,14,261,36,194,18,265,68,104,04,266,10,118,06,267,36,112,02*6A
$GAGSV,4,4,14,290,34,311,10,292,78,033,12,292,78,033,08*68
$GNGGA,161530.000,4011.89028,N,11137.25999,W,1,10,1.20,0.00,M,1382.35,M,,*68
$GNGLL,4011.89028,N,11137.25999,W,161530.000,A*3C
$GNGSA,A,03,10,15,18,23,24,27,04,05,09,10,11,32,1.2,1.0,2.0*1A
$GNRMC,161530,A,4011.89028,N,11137.25999,W,000.0,000.0,250923,000.0,E*71
$GNZDA,161530.000,25,09,2023,00,00*45
$GNVTG,0.00,T,,M,0.00,N,0.00,K,A*23
$INTEL,KIM,2.0.0.6,144930000,2281,0,0.000,0.000,0,0.000,0.000,0.000,0.000,0.000,0.000*0D
$GPGSV,3,1,11,10,52,275,44,15,35,051,41,18,64,094,46,23,72,002,45*7D
$GPGSV,3,2,11,24,20,102,41,27,39,299,40,32,19,201,42,530,64,094,05*43
$GPGSV,3,3,11,535,72,002,08,536,20,102,02,539,39,299,13*73
$GAGSV,4,1,14,04,28,046,24,05,36,194,44,09,68,104,24,10,10,118,11*62
$GAGSV,4,2,14,11,36,112,42,34,34,311,43,36,78,033,43,260,28,046,14*5A
$GAGSV,4,3,14,261,36,194,14,265,68,104,04,266,10,118,06,267,36,112,02*66
$GAGSV,4,4,14,290,34,311,10,292,78,033,12,292,78,033,08*68
$GNGGA,161530.500,4011.89028,N,11137.26002,W,1,10,1.20,0.00,M,1382.35,M,,*65
$GNGLL,4011.89028,N,11137.26002,W,161530.500,A*31
$GNGSA,A,03,10,15,18,23,24,27,04,05,09,10,11,32,1.2,1.0,2.0*1A
$GNRMC,161530,A,4011.89028,N,11137.26002,W,000.0,000.0,250923,000.0,E*79
$GNZDA,161530.500,25,09,2023,00,00*40
$GNVTG,0.00,T,,M,0.00,N,0.00,K,A*23
$INTEL,KIM,2.0.0.6,144930500,2281,0,0.000,0.000,0,0.000,0.000,0.000,0.000,0.000,0.000*08
$GPGSV,3,1,11,10,52,275,44,15,35,051,41,18,64,094,46,23,72,002,45*7D
$GPGSV,3,2,11,24,20,102,41,27,39,299,40,32,19,201,42,530,64,094,02*44
$GPGSV,3,3,11,535,72,002,09,536,20,102,02,539,39,299,12*73
$GAGSV,4,1,14,04,28,046,24,05,36,194,44,09,68,104,24,10,10,118,08*6A
$GAGSV,4,2,14,11,36,112,42,34,34,311,43,36,78,033,43,260,28,046,11*5F
$GAGSV,4,3,14,261,36,194,14,265,68,104,09,266,10,118,06,267,36,112,02*6B
$GAGSV,4,4,14,290,34,311,07,292,78,033,12,292,78,033,08*6E
$GNGGA,161531.000,4011.89027,N,11137.26004,W,1,10,1.20,0.00,M,1382.35,M,,*68
$GNGLL,4011.89027,N,11137.26004,W,161531.000,A*3C
$GNGSA,A,03,10,15,18,23,24,27,04,05,09,10,11,32,1.2,1.0,2.0*1A
$GNRMC,161531,A,4011.89027,N,11137.26004,W,000.0,000.0,250923,000.0,E*71
$GNZDA,161531.000,25,09,2023,00,00*44
$GNVTG,0.00,T,,M,0.00,N,0.00,K,A*23
$INTEL,KIM,2.0.0.6,144931000,2281,0,0.000,0.000,0,0.000,0.000,0.000,0.000,0.000,0.000*0C
$GNGGA,161531.500,4011.89027,N,11137.26007,W,1,10,1.20,0.00,M,1382.35,M,,*6E
$GNGLL,4011.89027,N,11137.26007,W,161531.500,A*3A
$GNGSA,A,03,10,15,18,23,24,27,04,05,09,10,11,32,1.2,1.0,2.0*1A
$GNRMC,161531,A,4011.89027,N,11137.26007,W,000.0,000.0,250923,000.0,E*72
$GNZDA,161531.500,25,09,2023,00,00*41
$GNVTG,0.00,T,,M,0.00,N,0.00,K,A*23
$INTEL,KIM,2.0.0.6,144931500,2281,0,0.000,0.000,0,0.000,0.000,0.000,0.000,0.000,0.000*09
$GPGSV,3,1,11,10,52,275,44,15,35,051,42,18,64,094,46,23,72,002,45*7E
$GPGSV,3,2,11,24,20,102,41,27,39,299,40,32,19,201,42,530,64,094,08*4E
$GPGSV,3,3,11,535,72,002,02,536,20,102,02,539,39,299,11*7B
$GAGSV,4,1,14,04,28,046,25,05,36,194,44,09,68,104,24,10,10,118,09*6A
$GAGSV,4,2,14,11,36,112,43,34,34,311,43,36,78,033,43,260,28,046,09*57
$GAGSV,4,3,14,261,36,194,13,265,68,104,09,266,10,118,18,267,36,112,02*63
$GAGSV,4,4,14,290,34,311,07,292,78,033,13,292,78,033,08*6F
$GNGGA,161532.500,4011.89027,N,11137.26016,W,1,10,1.20,0.00,M,1382.35,M,,*6D
$GNGLL,4011.89027,N,11137.26016,W,161532.500,A*39
$GNGSA,A,03,10,15,18,23,24,27,04,05,09,10,11,32,1.2,1.0,1.0*19
$GNRMC,161532,A,4011.89027,N,11137.26016,W,000.0,000.0,250923,000.0,E*71
$GNZDA,161532.500,25,09,2023,00,00*42
$GNVTG,0.00,T,,M,0.00,N,0.00,K,A*23
$INTEL,KIM,2.0.0.6,144932500,2281,0,0.000,0.000,0,0.000,0.000,0.000,0.000,0.000,0.000*0A
$GPGSV,4,1,13,10,52,275,44,15,35,051,41,18,64,094,46,23,72,002,45*78
$GPGSV,4,2,13,24,20,102,41,27,39,299,40,32,19,201,42,522,52,275,12*4B
$GPGSV,4,3,13,530,64,094,06,535,72,002,09,536,20,102,02,539,39,299,06*7C
$GPGSV,4,4,13,544,19,201,12*76
$GAGSV,4,1,14,04,28,046,24,05,36,194,42,09,68,104,24,10,10,118,15*60
$GAGSV,4,2,14,11,36,112,42,34,34,311,41,36,78,033,42,260,28,046,08*54
$GAGSV,4,3,14,261,36,194,09,265,68,104,15,266,10,118,09,267,36,112,02*65
$GAGSV,4,4,14,290,34,311,05,292,78,033,05,292,78,033,05*67
$GNGGA,161534.000,4011.89026,N,11137.26030,W,1,10,1.20,0.00,M,1382.37,M,,*69
$GNGLL,4011.89026,N,11137.26030,W,161534.000,A*3F
$GNGSA,A,03,10,15,18,23,24,27,04,05,09,10,11,32,1.2,1.0,1.0*19
$GNRMC,161534,A,4011.89026,N,11137.26030,W,000.0,000.0,250923,000.0,E*72
$GNZDA,161534.000,25,09,2023,00,00*41
$GNVTG,0.00,T,,M,0.00,N,0.00,K,A*23
$INTEL,KIM,2.0.0.6,144934000,2281,0,0.000,0.000,0,0.000,0.000,0.000,0.000,0.000,0.000*09
$GPGSV,4,1,13,10,52,275,45,15,35,051,42,18,64,094,46,23,72,002,45*7A
$GPGSV,4,2,13,24,20,102,41,27,39,299,40,32,19,201,42,522,52,275,10*49
$GPGSV,4,3,13,530,64,094,06,535,72,002,06,536,20,102,02,539,39,299,06*73
$GPGSV,4,4,13,544,19,201,07*72
$GAGSV,4,1,14,04,28,046,24,05,36,194,44,09,68,104,24,10,10,118,16*65
$GAGSV,4,2,14,11,36,112,43,34,34,311,43,36,78,033,43,260,28,046,08*56
$GAGSV,4,3,14,261,36,194,07,265,68,104,07,266,10,118,09,267,36,112,02*68
$GAGSV,4,4,14,290,34,311,05,292,78,033,11,292,78,033,05*62
$GNGGA,161534.500,4011.89025,N,11137.26034,W,1,10,1.20,0.00,M,1382.38,M,,*64
$GNGLL,4011.89025,N,11137.26034,W,161534.500,A*3D
$GNGSA,A,03,10,15,18,23,24,27,04,05,09,10,11,32,1.2,1.0,1.0*19
$GNRMC,161534,A,4011.89025,N,11137.26034,W,000.0,000.0,250923,000.0,E*75
$GNZDA,161534.500,25,09,2023,00,00*44
$GNVTG,0.00,T,,M,0.00,N,0.00,K,A*23
$INTEL,KIM,2.0.0.6,144934500,2281,0,0.000,0.000,0,0.000,0.000,0.000,0.000,0.000,0.000*0C
$GPGSV,4,1,13,10,52,275,45,15,35,051,42,18,64,094,46,23,72,002,45*7A
$GPGSV,4,2,13,24,20,102,41,27,39,299,40,32,19,201,42,522,52,275,07*4F
$GPGSV,4,3,13,530,64,094,06,535,72,002,06,536,20,102,07,539,39,299,06*76
$GPGSV,4,4,13,544,19,201,05*70
$GAGSV,4,1,14,04,28,046,24,05,36,194,44,09,68,104,24,10,10,118,17*64
$GAGSV,4,2,14,11,36,112,43,34,34,311,43,36,78,033,43,260,28,046,11*5E
$GAGSV,4,3,14,261,36,194,07,265,68,104,07,266,10,118,09,267,36,112,02*68
$GAGSV,4,4,14,290,34,311,05,292,78,033,02,292,78,033,05*60
$GNGGA,161535.000,4011.89024,N,11137.26038,W,1,11,1.10,0.00,M,1382.39,M,,*6E
$GNGLL,4011.89024,N,11137.26038,W,161535.000,A*34
$GNGSA,A,03,10,15,18,23,24,27,04,05,09,10,11,32,1.1,1.0,2.0*19
$GNRMC,161535,A,4011.89024,N,11137.26038,W,000.0,000.0,250923,000.0,E*79
$GNZDA,161535.000,25,09,2023,00,00*40
$GNVTG,0.00,T,,M,0.00,N,0.00,K,A*23
$INTEL,KIM,2.0.0.6,144935000,2281,0,0.000,0.000,0,0.000,0.000,0.000,0.000,0.000,0.000*08
$GPGSV,4,1,13,10,52,275,45,15,35,051,42,18,64,094,47,23,72,002,45*7B
$GPGSV,4,2,13,24,20,102,42,27,39,299,40,32,19,201,42,522,52,275,08*43
$GPGSV,4,3,13,530,64,094,06,535,72,002,02,536,20,102,05,539,39,299,06*70
$GPGSV,4,4,13,544,19,201,05*70
$GAGSV,4,1,14,04,28,046,24,05,36,194,44,09,68,104,24,10,10,118,18*6B
$GAGSV,4,2,14,11,36,112,43,34,34,311,43,36,78,033,43,260,28,046,05*5B
$GAGSV,4,3,14,261,36,194,07,265,68,104,07,266,10,118,05,267,36,112,06*60
$GAGSV,4,4,14,290,34,311,05,292,78,033,02,292,78,033,05*60
$GNGGA,161535.500,4011.89023,N,11137.26041,W,1,10,1.20,0.00,M,1382.40,M,,*6E
$GNGLL,4011.89023,N,11137.26041,W,161535.500,A*38
$GNGSA,A,03,10,15,18,23,24,27,04,05,09,10,11,32,1.2,1.0,2.0*1A
$GNRMC,161535,A,4011.89023,N,11137.26041,W,000.0,000.0,250923,000.0,E*70
$GNZDA,161535.500,25,09,2023,00,00*45
$GNVTG,0.00,T,,M,0.00,N,0.00,K,A*23
$INTEL,KIM,2.0.0.6,144935500,2281,0,0.000,0.000,0,0.000,0.000,0.000,0.000,0.000,0.000*0D
$GPGSV,4,1,13,10,52,275,45,15,35,051,42,18,64,094,46,23,72,002,45*7A
$GPGSV,4,2,13,24,20,102,41,27,39,299,40,32,19,201,42,522,52,275,08*40
$GPGSV,4,3,13,530,64,094,06,535,72,002,02,536,20,102,05,539,39,299,06*70
$GPGSV,4,4,13,544,19,201,05*70
$GAGSV,4,1,14,04,28,046,25,05,36,194,44,09,68,104,24,10,10,118,18*6A
$GAGSV,4,2,14,11,36,112,43,34,34,311,43,36,78,033,43,260,28,046,08*56
$GAGSV,4,3,14,261,36,194,14,265,68,104,07,266,10,118,04,267,36,112,08*6D
$GAGSV,4,4,14,290,34,311,05,292,78,033,02,292,78,033,05*60
$GNGGA,161536.000,4011.89022,N,11137.26042,W,1,10,1.20,0.00,M,1382.41,M,,*6B
$GNGLL,4011.89022,N,11137.26042,W,161536.000,A*3C
$GNGSA,A,03,10,15,18,23,24,27,04,05,09,10,11,32,1.2,1.0,1.0*19
$GNRMC,161536,A,4011.89022,N,11137.26042,W,000.0,000.0,250923,000.0,E*71
$GNZDA,161536.000,25,09,2023,00,00*43
$GNVTG,0.00,T,,M,0.00,N,0.00,K,A*23
$INTEL,KIM,2.0.0.6,144936000,2281,0,0.000,0.000,0,0.000,0.000,0.000,0.000,0.000,0.000*0B
$GPGSV,4,1,13,10,52,275,45,15,35,051,41,18,64,094,46,23,72,002,45*79
$GPGSV,4,2,13,24,20,102,42,27,39,299,40,32,19,201,42,522,52,275,02*49
$GPGSV,4,3,13,530,64,094,06,535,72,002,02,536,20,102,02,539,39,299,06*77
$GPGSV,4,4,13,544,19,201,02*77
$GAGSV,4,1,14,04,28,046,25,05,36,194,44,09,68,104,24,10,10,118,16*64
$GAGSV,4,2,14,11,36,112,43,34,34,311,43,36,78,033,43,260,28,046,13*5C
$GAGSV,4,3,14,261,36,194,14,265,68,104,07,266,10,118,04,267,36,112,08*6D
$GAGSV,4,4,14,290,34,311,11,292,78,033,02,292,78,033,05*65
$GNGGA,161536.500,4011.89022,N,11137.26044,W,1,10,1.20,0.00,M,1382.43,M,,*6A
$GNGLL,4011.89022,N,11137.26044,W,161536.500,A*3F
$GNGSA,A,03,10,15,18,23,24,27,04,05,09,10,11,32,1.2,1.0,1.0*19
$GNRMC,161536,A,4011.89022,N,11137.26044,W,000.0,000.0,250923,000.0,E*77
$GNZDA,161536.500,25,09,2023,00,00*46
$GNVTG,0.00,T,,M,0.00,N,0.00,K,A*23
$INTEL,KIM,2.0.0.6,144936500,2281,0,0.000,0.000,0,0.000,0.000,0.000,0.000,0.000,0.000*0E
$GPGSV,4,1,13,10,52,275,45,15,35,051,41,18,64,094,46,23,72,002,45*79
$GPGSV,4,2,13,24,20,102,42,27,39,299,40,32,19,201,42,522,52,275,02*49
$GPGSV,4,3,13,530,64,094,06,535,72,002,02,536,20,102,10,539,39,299,14*77
$GPGSV,4,4,13,544,19,201,02*77
$GAGSV,4,1,14,04,28,046,25,05,36,194,44,09,68,104,24,10,10,118,18*6A
$GAGSV,4,2,14,11,36,112,43,34,34,311,42,36,78,033,42,260,28,046,09*57
$GAGSV,4,3,14,261,36,194,14,265,68,104,07,266,10,118,04,267,36,112,08*6D
$GAGSV,4,4,14,290,34,311,11,292,78,033,11,292,78,033,05*67
$GNGGA,161537.000,4011.89021,N,11137.26046,W,1,10,1.20,0.00,M,1382.44,M,,*68
$GNGLL,4011.89021,N,11137.26046,W,161537.000,A*3A
$GNGSA,A,03,10,15,18,23,24,27,04,05,09,10,11,32,1.2,1.0,1.0*19
$GNRMC,161537,A,4011.89021,N,11137.26046,W,000.0,000.0,250923,000.0,E*77
