$GPGSV,4,1,14,10,30,244,40,13,27,052,42,15,54,086,45,16,20,287,41*7C
$GPGSV,4,2,14,18,71,001,45,23,66,263,46,26,15,258,37,27,17,318,39*79
$GPGSV,4,3,14,522,30,244,10,530,71,001,08,535,66,263,08,29,40,160,45*42
$GPGSV,4,4,14,538,15,258,07,539,17,318,09*74
$GAGSV,4,1,14,02,20,259,41,05,11,190,35,09,50,147,25,10,26,097,40*6E
$GAGSV,4,2,14,258,20,259,12,261,11,190,08,265,50,147,14,266,26,097,10*64
$GAGSV,4,3,14,267,52,082,02,11,52,082,42,30,12,310,34,36,62,329,43*56
$GAGSV,4,4,14,286,12,310,05,292,62,329,07*67
$GNGGA,150843.000,4011.89006,N,11137.25989,W,1,14,1.30,0.00,M,1389.90,M,,*6F
$GNGLL,4011.89006,N,11137.25989,W,150843.000,A*3A
$GNGSA,A,03,10,13,15,16,18,23,26,27,02,05,09,10,1.3,2.0,3.0*19
$GNRMC,150843,A,4011.89006,N,11137.25989,W,000.0,000.0,250923,000.0,E*77
$GNZDA,150843.000,25,09,2023,00,00*4E
$GNVTG,0.00,T,,M,0.00,N,0.00,K,A*23
$INTEL,KIM,2.0.0.6,140923000,2281,0,0.000,0.000,0,0.000,0.000,0.000,0.000,0.000,0.000*0B
$GPGSV,4,1,14,10,30,244,40,13,27,052,42,15,54,086,45,16,20,287,41*7C
$GPGSV,4,2,14,18,71,001,45,23,66,263,46,26,15,258,37,27,17,318,39*79
$GPGSV,4,3,14,522,30,244,10,530,71,001,08,535,66,263,08,29,40,160,45*42
$GPGSV,4,4,14,538,15,258,08,539,17,318,09*7B
$GAGSV,4,1,14,02,20,259,41,05,11,190,35,09,50,147,25,10,26,097,40*6E
$GAGSV,4,2,14,258,20,259,04,261,11,190,10,265,50,147,12,266,26,097,06*6B
$GAGSV,4,3,14,267,52,082,02,11,52,082,42,30,12,310,35,36,62,329,43*57
$GAGSV,4,4,14,286,12,310,05,292,62,329,07*67
$GNGGA,150843.500,4011.89006,N,11137.25989,W,1,14,1.30,0.00,M,1389.88,M,,*63
$GNGLL,4011.89006,N,11137.25989,W,150843.500,A*3F
$GNGSA,A,03,10,13,15,16,18,23,26,27,02,05,09,10,1.3,2.0,3.0*19
$GNRMC,150843,A,4011.89006,N,11137.25989,W,000.0,000.0,250923,000.0,E*77
$GNZDA,150843.500,25,09,2023,00,00*4B
$GNVTG,0.00,T,,M,0.00,N,0.00,K,A*23
$INTEL,KIM,2.0.0.6,140923500,2281,0,0.000,0.000,0,0.000,0.000,0.000,0.000,0.000,0.000*0E
$GPGSV,4,1,14,10,30,244,40,13,27,052,42,15,54,086,45,16,20,287,41*7C
$GPGSV,4,2,14,18,71,001,45,23,66,263,46,26,15,258,37,27,17,318,40*77
$GPGSV,4,3,14,522,30,244,10,530,71,001,08,535,66,263,08,29,40,160,45*42
$GPGSV,4,4,14,538,15,258,08,539,17,318,06,539,17,318,09*7E
$GAGSV,4,1,13,02,20,259,41,05,11,190,35,09,50,147,25,10,26,097,40*69
$GAGSV,4,2,13,258,20,259,04,261,11,190,10,265,50,147,12,266,26,097,06*6C
$GAGSV,4,3,13,267,52,082,02,11,52,082,42,30,12,310,35,36,62,329,43*50
$GAGSV,4,4,13,292,62,329,07*68
$GNGGA,150844.000,4011.89007,N,11137.25987,W,1,14,1.30,0.00,M,1389.85,M,,*63
$GNGLL,4011.89007,N,11137.25987,W,150844.000,A*32
$GNGSA,A,03,10,13,15,16,18,23,26,27,02,05,09,10,1.3,1.0,3.0*1A
$GNRMC,150844,A,4011.89007,N,11137.25987,W,000.0,000.0,250923,000.0,E*7F
$GNZDA,150844.000,25,09,2023,00,00*49
$GNVTG,0.00,T,,M,0.00,N,0.00,K,A*23
$INTEL,KIM,2.0.0.6,140924000,2281,0,0.000,0.000,0,0.000,0.000,0.000,0.000,0.000,0.000*0C
$GPGSV,4,1,14,10,30,244,40,13,27,052,41,15,54,086,45,16,20,287,41*7F
$GPGSV,4,2,14,18,71,001,45,23,66,263,46,26,15,258,37,27,17,318,39*79
$GPGSV,4,3,14,522,30,244,10,530,71,001,06,535,66,263,08,29,40,160,44*4D
$GPGSV,4,4,14,538,15,258,08,539,17,318,04*76
$GAGSV,4,1,14,02,20,259,41,05,11,190,34,09,50,147,25,10,26,097,39*61
$GAGSV,4,2,14,258,20,259,04,261,11,190,10,265,50,147,08,266,26,097,06*60
$GAGSV,4,3,14,267,52,082,02,11,52,082,41,30,12,310,34,36,62,329,42*54
$GAGSV,4,4,14,286,12,310,10,292,62,329,07*63
$GNGGA,150844.500,4011.89007,N,11137.25987,W,1,14,1.30,0.00,M,1389.82,M,,*61
$GNGLL,4011.89007,N,11137.25987,W,150844.500,A*37
$GNGSA,A,03,10,13,15,16,18,23,26,27,02,05,09,10,1.3,1.0,2.0*1B
$GNRMC,150844,A,4011.89007,N,11137.25987,W,000.0,000.0,250923,000.0,E*7F
$GNZDA,150844.500,25,09,2023,00,00*4C
$GNVTG,0.00,T,,M,0.00,N,0.00,K,A*23
$INTEL,KIM,2.0.0.6,140924500,2281,0,0.000,0.000,0,0.000,0.000,0.000,0.000,0.000,0.000*09
$GNGGA,150845.000,4011.89009,N,11137.25987,W,1,14,1.30,0.00,M,1389.79,M,,*6F
$GNGLL,4011.89009,N,11137.25987,W,150845.000,A*3D
$GNGSA,A,03,10,13,15,16,18,23,26,27,02,05,09,10,1.3,2.0,2.0*18
$GNRMC,150845,A,4011.89009,N,11137.25987,W,000.0,000.0,250923,000.0,E*70
$GNZDA,150845.000,25,09,2023,00,00*48
$GNVTG,0.00,T,,M,0.00,N,0.00,K,A*23
$INTEL,KIM,2.0.0.6,140925000,2281,0,0.000,0.000,0,0.000,0.000,0.000,0.000,0.000,0.000*0D
$GPGSV,4,1,14,10,30,244,40,13,27,052,42,15,54,086,45,16,20,287,41*7C
$GPGSV,4,2,14,18,71,001,45,23,66,263,46,26,15,258,37,27,17,318,40*77
$GPGSV,4,3,14,522,30,244,10,530,71,001,06,535,66,263,08,29,40,160,45*4C
$GPGSV,4,4,14,538,15,258,08,539,17,318,08*7A
$GAGSV,4,1,14,02,20,259,42,05,11,190,35,09,50,147,25,10,26,097,40*6D
$GAGSV,4,2,14,258,20,259,04,261,11,190,13,265,50,147,08,266,26,097,06*63
$GAGSV,4,3,14,267,52,082,02,11,52,082,41,30,12,310,35,36,62,329,43*54
$GAGSV,4,4,14,286,12,310,12,292,62,329,07*61
$GPGSV,4,1,14,10,30,244,40,13,27,052,42,15,54,086,45,16,20,287,41*7C
$GPGSV,4,2,14,18,71,001,45,23,66,263,46,26,15,258,37,27,17,318,39*79
$GPGSV,4,3,14,522,30,244,10,530,71,001,06,535,66,263,08,29,40,160,45*4C
$GPGSV,4,4,14,538,15,258,08,539,17,318,07*75
$GAGSV,4,1,14,02,20,259,42,05,12,190,35,09,50,147,25,10,26,097,40*6E
$GAGSV,4,2,14,258,20,259,04,261,12,190,08,265,50,147,08,266,26,097,06*6A
$GAGSV,4,3,14,267,52,082,02,11,52,082,42,30,12,310,36,36,62,329,43*54
$GAGSV,4,4,14,286,12,310,10,292,62,329,07*63
$GNGGA,150845.500,4011.89010,N,11137.25985,W,1,14,1.30,0.00,M,1389.76,M,,*6F
$GNGLL,4011.89010,N,11137.25985,W,150845.500,A*32
$GNGSA,A,03,10,13,15,16,18,23,26,27,02,05,09,10,1.3,2.0,3.0*19
$GNRMC,150845,A,4011.89010,N,11137.25985,W,000.0,000.0,250923,000.0,E*7A
$GNZDA,150845.500,25,09,2023,00,00*4D
$GNVTG,0.00,T,,M,0.00,N,0.00,K,A*23
$INTEL,KIM,2.0.0.6,140925500,2281,0,0.000,0.000,0,0.000,0.000,0.000,0.000,0.000,0.000*08
$GPGSV,4,1,14,10,30,244,40,13,27,052,42,15,54,086,45,16,20,287,41*7C
$GPGSV,4,2,14,18,71,001,45,23,66,263,46,26,15,258,37,27,17,318,40*77
$GPGSV,4,3,14,522,30,244,12,530,71,001,06,535,66,263,08,29,40,160,45*4E
$GPGSV,4,4,14,538,15,258,08,539,17,318,07*75
$GAGSV,4,1,14,02,20,259,42,05,12,190,35,09,50,147,25,10,26,097,40*6E
$GAGSV,4,2,14,258,20,259,04,261,12,190,08,265,50,147,08,266,26,097,06*6A
$GAGSV,4,3,14,267,52,082,02,11,52,082,42,30,12,310,35,36,62,329,43*57
$GAGSV,4,4,14,286,12,310,05,292,62,329,07*67
$GNGGA,150846.000,4011.89013,N,11137.25982,W,1,14,1.30,0.00,M,1389.73,M,,*68
$GNGLL,4011.89013,N,11137.25982,W,150846.000,A*30
$GNGSA,A,03,10,13,15,16,18,23,26,27,02,05,09,10,1.3,2.0,3.0*19
$GNRMC,150846,A,4011.89013,N,11137.25982,W,000.0,000.0,250923,000.0,E*7D
$GNZDA,150846.000,25,09,2023,00,00*4B
$GNVTG,0.00,T,,M,0.00,N,0.00,K,A*23
$INTEL,KIM,2.0.0.6,140926000,2281,0,0.000,0.000,0,0.000,0.000,0.000,0.000,0.000,0.000*0E
$GPGSV,4,1,14,10,30,244,40,13,27,052,42,15,54,086,45,16,20,287,41*7C
$GPGSV,4,2,14,18,71,001,45,23,66,263,46,26,15,258,37,27,17,318,40*77
$GPGSV,4,3,14,522,30,244,09,530,71,001,06,535,66,263,08,29,40,160,45*44
$GPGSV,4,4,14,538,15,258,04,539,17,318,07*79
$GAGSV,4,1,14,02,20,259,42,05,12,190,35,09,50,147,25,10,26,097,40*6E
$GAGSV,4,2,14,258,20,259,04,261,12,190,05,265,50,147,08,266,26,097,06*67
$GAGSV,4,3,14,267,52,082,02,11,52,082,42,30,12,310,35,36,62,329,43*57
$GAGSV,4,4,14,286,12,310,05,292,62,329,07*67
$GNGGA,150846.500,4011.89014,N,11137.25979,W,1,14,1.30,0.00,M,1389.70,M,,*6D
$GNGLL,4011.89014,N,11137.25979,W,150846.500,A*36
$GNGSA,A,03,10,13,15,16,18,23,26,27,02,05,09,10,1.3,2.0,3.0*19
$GNRMC,150846,A,4011.89014,N,11137.25979,W,000.0,000.0,250923,000.0,E*7E
$GNZDA,150846.500,25,09,2023,00,00*4E
$GNVTG,0.00,T,,M,0.00,N,0.00,K,A*23
$INTEL,KIM,2.0.0.6,140926500,2281,0,0.000,0.000,0,0.000,0.000,0.000,0.000,0.000,0.000*0B
$GPGSV,4,1,14,10,30,244,40,13,27,052,42,15,54,086,45,16,20,287,41*7C
$GPGSV,4,2,14,18,71,001,45,23,66,263,46,26,15,258,37,27,17,318,39*79
$GPGSV,4,3,14,522,30,244,02,530,71,001,06,535,66,263,08,29,40,160,45*4F
$GPGSV,4,4,14,538,15,258,04,539,17,318,07*79
$GAGSV,4,1,14,02,20,259,42,05,12,190,35,09,50,147,25,10,26,097,40*6E
$GAGSV,4,2,14,258,20,259,04,261,12,190,05,265,50,147,08,266,26,097,06*67
$GAGSV,4,3,14,267,52,082,19,11,52,082,42,30,12,310,36,36,62,329,43*5E
$GAGSV,4,4,14,286,12,310,05,292,62,329,07*67
$GNGGA,150847.000,4011.89016,N,11137.25977,W,1,14,1.30,0.00,M,1389.67,M,,*63
$GNGLL,4011.89016,N,11137.25977,W,150847.000,A*3E
$GNGSA,A,03,10,13,15,16,18,23,26,27,02,05,09,10,1.3,2.0,3.0*19
$GNRMC,150847,A,4011.89016,N,11137.25977,W,000.0,000.0,250923,000.0,E*73
$GNZDA,150847.000,25,09,2023,00,00*4A
$GNVTG,0.00,T,,M,0.00,N,0.00,K,A*23
$INTEL,KIM,2.0.0.6,140927000,2281,0,0.000,0.000,0,0.000,0.000,0.000,0.000,0.000,0.000*0F
$GNGGA,150847.500,4011.89018,N,11137.25975,W,1,14,1.30,0.00,M,1389.65,M,,*68
$GNGLL,4011.89018,N,11137.25975,W,150847.500,A*37
$GNGSA,A,03,10,13,15,16,18,23,26,27,02,05,09,10,1.3,2.0,2.0*18
$GNRMC,150847,A,4011.89018,N,11137.25975,W,000.0,000.0,250923,000.0,E*7F
$GPGSV,4,1,14,10,30,244,40,13,27,052,42,15,54,086,45,16,20,287,41*7C
$GPGSV,4,2,14,18,71,001,45,23,66,263,46,26,15,258,37,27,17,318,40*77
$GPGSV,4,3,14,522,30,244,02,530,71,001,06,535,66,263,08,29,40,160,45*4F
$GPGSV,4,4,14,538,15,258,04,539,17,318,07*79
$GAGSV,4,1,14,02,20,259,42,05,12,190,35,09,50,147,25,10,26,097,41*6F
$GAGSV,4,2,14,258,20,259,04,261,12,190,05,265,50,147,02,266,26,097,06*6D
$GAGSV,4,3,14,267,52,082,16,11,52,082,42,30,12,310,35,36,62,329,43*52
$GAGSV,4,4,14,286,12,310,05,292,62,329,07*67
$GNZDA,150847.500,25,09,2023,00,00*4F
$GNVTG,0.00,T,,M,0.00,N,0.00,K,A*23
$INTEL,KIM,2.0.0.6,140927500,2281,0,0.000,0.000,0,0.000,0.000,0.000,0.000,0.000,0.000*0A
$GPGSV,4,1,14,10,30,244,40,13,27,052,42,15,54,086,45,16,20,287,41*7C
$GPGSV,4,2,14,18,71,001,45,23,66,263,46,26,15,258,36,27,17,318,39*78
$GPGSV,4,3,14,522,30,244,02,530,71,001,06,535,66,263,08,29,40,160,45*4F
$GPGSV,4,4,14,538,15,258,11,539,17,318,07*7D
$GAGSV,4,1,14,02,20,259,42,05,12,190,35,09,50,147,25,10,26,097,41*6F
$GAGSV,4,2,14,258,20,259,04,261,12,190,05,265,50,147,02,266,26,097,06*6D
$GAGSV,4,3,14,267,52,082,13,11,52,082,42,30,12,310,35,36,62,329,43*57
$GAGSV,4,4,14,286,12,310,05,292,62,329,15*64
$GNGGA,150848.000,4011.89019,N,11137.25974,W,1,14,1.30,0.00,M,1389.62,M,,*65
$GNGLL,4011.89019,N,11137.25974,W,150848.000,A*3D
$GNGSA,A,03,10,13,15,16,18,23,26,27,02,05,09,10,1.3,2.0,3.0*19
$GNRMC,150848,A,4011.89019,N,11137.25974,W,000.0,000.0,250923,000.0,E*70
$GNZDA,150848.000,25,09,2023,00,00*45
$GNVTG,0.00,T,,M,0.00,N,0.00,K,A*23
$INTEL,KIM,2.0.0.6,140928000,2281,0,0.000,0.000,0,0.000,0.000,0.000,0.000,0.000,0.000*00
$GPGSV,4,1,14,10,30,244,40,13,27,052,42,15,54,086,46,16,20,287,41*7F
$GPGSV,4,2,14,18,71,001,45,23,66,263,46,26,15,258,37,27,17,318,40*77
$GPGSV,4,3,14,522,30,244,02,530,71,001,06,535,66,263,08,29,40,160,45*4F
$GPGSV,4,4,14,538,15,258,08,539,17,318,07*75
$GAGSV,4,1,14,02,20,259,42,05,12,190,35,09,50,147,25,10,26,097,41*6F
$GAGSV,4,2,14,258,20,259,04,261,12,190,05,265,50,147,02,266,26,097,06*6D
$GAGSV,4,3,14,267,52,082,04,11,52,082,42,30,12,310,35,36,62,329,43*51
$GAGSV,4,4,14,286,12,310,05,292,62,329,11*60
$GNGGA,150848.500,4011.89019,N,11137.25976,W,1,14,1.30,0.00,M,1389.59,M,,*6A
$GNGLL,4011.89019,N,11137.25976,W,150848.500,A*3A
$GNGSA,A,03,10,13,15,16,18,23,26,27,02,05,09,10,1.3,2.0,2.0*18
$GNRMC,150848,A,4011.89019,N,11137.25976,W,000.0,000.0,250923,000.0,E*72
$GNZDA,150848.500,25,09,2023,00,00*40
$GNVTG,0.00,T,,M,0.00,N,0.00,K,A*23
$INTEL,KIM,2.0.0.6,140928500,2281,0,0.000,0.000,0,0.000,0.000,0.000,0.000,0.000,0.000*05
$GPGSV,4,1,14,10,30,244,41,13,27,052,42,15,54,086,46,16,20,287,41*7E
$GPGSV,4,2,14,18,71,001,45,23,66,263,46,26,15,258,37,27,17,318,40*77
$GPGSV,4,3,14,522,30,244,02,530,71,001,06,535,66,263,08,29,40,160,45*4F
$GPGSV,4,4,14,538,15,258,08,539,17,318,07*75
$GAGSV,4,1,14,02,20,259,42,05,12,190,35,09,50,147,25,10,26,097,41*6F
$GAGSV,4,2,14,258,20,259,17,261,12,190,05,265,50,147,12,266,26,097,06*6E
$GAGSV,4,3,14,267,52,082,04,11,52,082,42,30,12,310,35,36,62,329,43*51
$GAGSV,4,4,14,286,12,310,05,292,62,329,08*68
$GNGGA,150849.000,4011.89019,N,11137.25978,W,1,14,1.30,0.00,M,1389.56,M,,*6F
$GNGLL,4011.89019,N,11137.25978,W,150849.000,A*30
$GNGSA,A,03,10,13,15,16,18,23,26,27,02,05,09,10,1.3,2.0,2.0*18
$GNRMC,150849,A,4011.89019,N,11137.25978,W,000.0,000.0,250923,000.0,E*7D
$GNZDA,150849.000,25,09,2023,00,00*44
$GNVTG,0.00,T,,M,0.00,N,0.00,K,A*23
$INTEL,KIM,2.0.0.6,140929000,2281,0,0.000,0.000,0,0.000,0.000,0.000,0.000,0.000,0.000*01
$GPGSV,4,1,13,10,30,244,40,13,27,052,42,15,54,086,46,16,20,287,41*78
$GPGSV,4,2,13,18,71,001,45,23,66,263,46,26,15,258,37,27,17,318,39*7E
$GPGSV,4,3,13,522,30,244,02,530,71,001,06,29,40,160,45,538,15,258,08*49
$GPGSV,4,4,13,539,17,318,07,538,15,258,08*72
$GAGSV,4,1,13,02,20,259,42,05,12,190,34,09,50,147,25,10,26,097,40*68
$GAGSV,4,2,13,258,20,259,12,261,12,190,05,265,50,147,09,267,52,082,04*62
$GAGSV,4,3,13,11,52,082,42,30,12,310,35,36,62,329,43,286,12,310,05*54
$GAGSV,4,4,13,292,62,329,02*6D
$GNGGA,150849.500,4011.89019,N,11137.25981,W,1,14,1.30,0.00,M,1389.53,M,,*69
$GNGLL,4011.89019,N,11137.25981,W,150849.500,A*33
$GNGSA,A,03,10,13,15,16,18,23,26,27,02,05,09,10,1.3,2.0,2.0*18
$GNRMC,150849,A,4011.89019,N,11137.25981,W,000.0,000.0,250923,000.0,E*7B
$GNZDA,150849.500,25,09,2023,00,00*41
$GNVTG,0.00,T,,M,0.00,N,0.00,K,A*23
$INTEL,KIM,2.0.0.6,140929500,2281,0,0.000,0.000,0,0.000,0.000,0.000,0.000,0.000,0.000*04
$GPGSV,4,1,14,10,30,244,41,13,27,052,42,15,54,086,46,16,20,287,41*7E
$GPGSV,4,2,14,18,71,001,45,23,66,263,46,26,15,258,37,27,17,318,40*77
$GPGSV,4,3,14,522,30,244,05,530,71,001,06,29,40,160,45,535,66,263,17*46
$GPGSV,4,4,14,538,15,258,08,539,17,318,07*75
$GAGSV,4,1,14,02,20,259,42,05,12,190,34,09,50,147,25,10,26,097,40*6F
$GAGSV,4,2,14,258,20,259,12,261,12,190,05,265,50,147,10,266,26,097,10*6E
$GAGSV,4,3,14,267,52,082,04,11,52,082,42,30,12,310,35,36,62,329,43*51
$GAGSV,4,4,14,286,12,310,02,292,62,329,07*60
$GNGGA,150850.000,4011.89020,N,11137.25982,W,1,14,1.30,0.00,M,1389.51,M,,*6F
$GNGLL,4011.89020,N,11137.25982,W,150850.000,A*37
$GNGSA,A,03,10,13,15,16,18,23,26,27,02,05,09,10,1.3,2.0,2.0*18
$GNRMC,150850,A,4011.89020,N,11137.25982,W,000.0,000.0,250923,000.0,E*7A
$GNZDA,150850.000,25,09,2023,00,00*4C
$GNVTG,0.00,T,,M,0.00,N,0.00,K,A*23
$INTEL,KIM,2.0.0.6,140930000,2281,0,0.000,0.000,0,0.000,0.000,0.000,0.000,0.000,0.000*09
$GPGSV,4,1,14,10,30,244,41,13,27,052,41,15,54,086,45,16,20,287,40*7F
$GPGSV,4,2,14,18,71,001,45,23,66,263,46,26,15,258,37,27,17,318,39*79
$GPGSV,4,3,14,522,30,244,08,530,71,001,06,29,40,160,44,535,66,263,14*49
$GPGSV,4,4,14,538,15,258,08,539,17,318,07*75
$GAGSV,4,1,14,02,20,259,41,05,12,190,33,09,50,147,24,10,26,097,39*64
$GAGSV,4,2,14,258,20,259,11,261,12,190,05,265,50,147,09,266,26,097,12*67
$GAGSV,4,3,14,267,52,082,04,11,52,082,41,30,12,310,34,36,62,329,42*52
$GAGSV,4,4,14,286,12,310,07,292,62,329,07*65
$GNGGA,150850.500,4011.89021,N,11137.25982,W,1,14,1.30,0.00,M,1389.48,M,,*63
$GNGLL,4011.89021,N,11137.25982,W,150850.500,A*33
$GNGSA,A,03,10,13,15,16,18,23,26,27,02,05,09,10,1.3,1.0,3.0*1A
$GNRMC,150850,A,4011.89021,N,11137.25982,W,000.0,000.0,250923,000.0,E*7B
$GNZDA,150850.500,25,09,2023,00,00*49
$GNVTG,0.00,T,,M,0.00,N,0.00,K,A*23
$INTEL,KIM,2.0.0.6,140930500,2281,0,0.000,0.000,0,0.000,0.000,0.000,0.000,0.000,0.000*0C
$GPGSV,4,1,14,10,30,244,41,13,27,052,42,15,54,086,45,16,20,287,41*7D
$GPGSV,4,2,14,18,71,001,45,23,66,263,46,26,15,258,37,27,17,318,40*77
$GPGSV,4,3,14,522,30,244,04,530,71,001,06,29,40,160,45,535,66,263,13*43
$GPGSV,4,4,14,538,15,258,08,539,17,318,07*75
$GAGSV,4,1,14,02,20,259,42,05,12,190,34,09,50,147,24,10,26,097,40*6E
$GAGSV,4,2,14,258,20,259,07,261,12,190,09,265,50,147,09,266,26,097,12*6C
$GAGSV,4,3,14,267,52,082,04,11,52,082,42,30,12,310,35,36,62,329,43*51
$GAGSV,4,4,14,286,12,310,07,292,62,329,10*63
$GNGGA,150851.000,4011.89022,N,11137.25980,W,1,14,1.30,0.00,M,1389.46,M,,*68
$GNGLL,4011.89022,N,11137.25980,W,150851.000,A*36
$GNGSA,A,03,10,13,15,16,18,23,26,27,02,05,09,10,1.3,1.0,2.0*1B
$GNRMC,150851,A,4011.89022,N,11137.25980,W,000.0,000.0,250923,000.0,E*7B
$GNZDA,150851.000,25,09,2023,00,00*4D
$GNVTG,0.00,T,,M,0.00,N,0.00,K,A*23
$INTEL,KIM,2.0.0.6,140931000,2281,0,0.000,0.000,0,0.000,0.000,0.000,0.000,0.000,0.000*08
$GPGSV,4,1,14,10,30,244,41,13,27,052,42,15,54,086,45,16,20,287,41*7D
$GPGSV,4,2,14,18,71,001,45,23,66,263,47,26,15,258,37,27,17,318,39*78
$GPGSV,4,3,14,522,30,244,08,530,71,001,06,29,40,160,45,535,66,263,10*4C
$GPGSV,4,4,14,538,15,258,08,539,17,318,07*75
$GAGSV,4,1,14,02,20,259,42,05,12,190,34,09,50,147,25,10,26,097,40*6F
$GAGSV,4,2,14,258,20,259,07,261,12,190,04,265,50,147,09,266,26,097,12*61
$GAGSV,4,3,14,267,52,082,04,11,52,082,42,30,12,310,35,36,62,329,43*51
$GAGSV,4,4,14,286,12,310,07,292,62,329,05*67
$GNGGA,150851.500,4011.89024,N,11137.25977,W,1,14,1.30,0.00,M,1389.43,M,,*66
$GNGLL,4011.89024,N,11137.25977,W,150851.500,A*3D
$GNGSA,A,03,10,13,15,16,18,23,26,27,02,05,09,10,1.3,1.0,2.0*1B
$GNRMC,150851,A,4011.89024,N,11137.25977,W,000.0,000.0,250923,000.0,E*75
$GNZDA,150851.500,25,09,2023,00,00*48
$GNVTG,0.00,T,,M,0.00,N,0.00,K,A*23
$INTEL,KIM,2.0.0.6,140931500,2281,0,0.000,0.000,0,0.000,0.000,0.000,0.000,0.000,0.000*0D
$GPGSV,4,1,14,10,30,244,41,13,27,052,42,15,54,086,45,16,20,287,41*7D
$GPGSV,4,2,14,18,71,001,45,23,66,263,47,26,15,258,37,27,17,318,40*76
$GPGSV,4,3,14,522,30,244,08,530,71,001,06,29,40,160,45,535,66,263,04*49
$GPGSV,4,4,14,538,15,258,08,539,17,318,07*75
$GAGSV,4,1,14,02,20,259,42,05,12,190,34,09,50,147,25,10,26,097,40*6F
$GAGSV,4,2,14,258,20,259,10,261,12,190,10,265,50,147,04,266,26,097,12*6F
$GAGSV,4,3,14,267,52,082,08,11,52,082,42,30,12,310,35,36,62,329,43*5D
$GAGSV,4,4,14,286,12,310,07,292,62,329,05*67
$GNGGA,150852.000,4011.89025,N,11137.25973,W,1,14,1.30,0.00,M,1389.42,M,,*64
$GNGLL,4011.89025,N,11137.25973,W,150852.000,A*3E
$GNGSA,A,03,10,13,15,16,18,23,26,27,02,05,09,10,1.3,1.0,2.0*1B
$GNRMC,150852,A,4011.89025,N,11137.25973,W,000.0,000.0,250923,000.0,E*73
$GNZDA,150852.000,25,09,2023,00,00*4E
$GNVTG,0.00,T,,M,0.00,N,0.00,K,A*23
$INTEL,KIM,2.0.0.6,140932000,2281,0,0.000,0.000,0,0.000,0.000,0.000,0.000,0.000,0.000*0B
$GPGSV,4,1,14,10,30,244,41,13,27,052,42,15,54,086,45,16,20,287,41*7D
$GPGSV,4,2,14,18,71,001,45,23,66,263,46,26,15,258,37,27,17,318,40*77
$GPGSV,4,3,14,522,30,244,06,530,71,001,06,29,39,160,45,535,66,263,04*49
$GPGSV,4,4,14,538,15,258,08,539,17,318,07*75
$GAGSV,4,1,14,02,20,259,42,05,12,190,34,09,50,147,25,10,26,097,41*6E
$GAGSV,4,2,14,258,20,259,07,261,12,190,10,265,50,147,05,266,26,097,12*68
$GAGSV,4,3,14,267,52,082,08,11,52,082,42,30,12,310,35,36,62,329,43*5D
$GAGSV,4,4,14,286,12,310,07,292,62,329,05*67
$GNGGA,150852.500,4011.89026,N,11137.25970,W,1,14,1.30,0.00,M,1389.40,M,,*63
$GNGLL,4011.89026,N,11137.25970,W,150852.500,A*3B
$GNGSA,A,03,10,13,15,16,18,23,26,27,02,05,09,10,1.3,1.0,2.0*1B
$GNRMC,150852,A,4011.89026,N,11137.25970,W,000.0,000.0,250923,000.0,E*73
$GNZDA,150852.500,25,09,2023,00,00*4B
$GNVTG,0.00,T,,M,0.00,N,0.00,K,A*23
$INTEL,KIM,2.0.0.6,140932500,2281,0,0.000,0.000,0,0.000,0.000,0.000,0.000,0.000,0.000*0E
$GNGGA,150853.000,4011.89027,N,11137.25968,W,1,14,1.30,0.00,M,1389.38,M,,*60
$GNGLL,4011.89027,N,11137.25968,W,150853.000,A*37
$GNGSA,A,03,10,13,15,16,18,23,26,27,02,05,09,10,1.3,2.0,3.0*19
$GPGSV,4,1,14,10,30,244,41,13,27,052,42,15,54,086,45,16,20,287,41*7D
$GPGSV,4,2,14,18,71,001,45,23,66,263,47,26,15,258,37,27,17,318,40*76
$GPGSV,4,3,14,522,30,244,06,530,71,001,06,29,39,160,45,535,66,263,04*49
$GPGSV,4,4,14,538,15,258,08,539,17,318,07*75
$GAGSV,4,1,14,02,20,259,42,05,12,190,34,09,50,147,25,10,26,097,41*6E
$GAGSV,4,2,14,258,20,259,07,261,12,190,05,265,50,147,05,266,26,097,02*6D
$GAGSV,4,3,14,267,52,082,08,11,52,082,42,30,12,310,35,36,62,329,43*5D
$GAGSV,4,4,14,286,12,310,07,292,62,329,05*67
$GNRMC,150853,A,4011.89027,N,11137.25968,W,000.0,000.0,250923,000.0,E*7A
$GNZDA,150853.000,25,09,2023,00,00*4F
$GNVTG,0.00,T,,M,0.00,N,0.00,K,A*23
$INTEL,KIM,2.0.0.6,140933000,2281,0,0.000,0.000,0,0.000,0.000,0.000,0.000,0.000,0.000*0A
$GPGSV,4,1,14,10,30,244,41,13,27,052,42,15,54,086,45,16,20,287,41*7D
$GPGSV,4,2,14,18,71,001,45,23,66,263,47,26,15,258,37,27,17,318,40*76
$GPGSV,4,3,14,522,30,244,06,530,71,001,06,29,39,160,45,535,66,263,04*49
$GPGSV,4,4,14,538,15,258,08,539,17,318,07*75
$GAGSV,4,1,14,02,20,259,42,05,12,190,34,09,50,147,25,10,26,097,41*6E
$GAGSV,4,2,14,258,20,259,07,261,12,190,05,265,50,147,05,266,26,097,02*6D
$GAGSV,4,3,14,267,52,082,08,11,52,082,42,30,12,310,35,36,62,329,43*5D
$GAGSV,4,4,14,286,12,310,05,292,62,329,05*65
$GNGGA,150853.500,4011.89028,N,11137.25966,W,1,14,1.30,0.00,M,1389.37,M,,*6B
$GNGLL,4011.89028,N,11137.25966,W,150853.500,A*33
$GNGSA,A,03,10,13,15,16,18,23,26,27,02,05,09,10,1.3,1.0,2.0*1B
$GNRMC,150853,A,4011.89028,N,11137.25966,W,000.0,000.0,250923,000.0,E*7B
$GNZDA,150853.500,25,09,2023,00,00*4A
$GNVTG,0.00,T,,M,0.00,N,0.00,K,A*23
$INTEL,KIM,2.0.0.6,140933500,2281,0,0.000,0.000,0,0.000,0.000,0.000,0.000,0.000,0.000*0F
$GPGSV,4,1,14,10,30,244,42,13,27,052,42,15,54,086,45,16,20,287,41*7E
$GPGSV,4,2,14,18,71,001,45,23,66,263,47,26,15,258,37,27,17,318,40*76
$GPGSV,4,3,14,522,30,244,06,530,71,001,06,29,39,160,45,535,66,263,04*49
$GPGSV,4,4,14,538,15,258,08,539,17,318,07*75
$GAGSV,4,1,14,02,20,259,42,05,12,190,34,09,50,147,25,10,26,097,41*6E
$GAGSV,4,2,14,258,20,259,07,261,12,190,05,265,50,147,05,266,26,097,02*6D
$GAGSV,4,3,14,267,52,082,08,11,52,082,42,30,12,310,35,36,62,329,43*5D
$GAGSV,4,4,14,286,12,310,04,292,62,329,15*65
$GNGGA,150854.000,4011.89029,N,11137.25965,W,1,14,1.30,0.00,M,1389.36,M,,*6A
$GNGLL,4011.89029,N,11137.25965,W,150854.000,A*33
$GNGSA,A,03,10,13,15,16,18,23,26,27,02,05,09,10,1.3,2.0,3.0*19
$GNRMC,150854,A,4011.89029,N,11137.25965,W,000.0,000.0,250923,000.0,E*7E
$GNZDA,150854.000,25,09,2023,00,00*48
$GNVTG,0.00,T,,M,0.00,N,0.00,K,A*23
$INTEL,KIM,2.0.0.6,140934000,2281,0,0.000,0.000,0,0.000,0.000,0.000,0.000,0.000,0.000*0D
$GPGSV,4,1,14,10,30,244,41,13,27,052,42,15,54,086,45,16,20,287,41*7D
$GPGSV,4,2,14,18,71,001,45,23,66,263,47,26,15,258,36,27,17,318,40*77
$GPGSV,4,3,14,522,30,244,06,530,71,001,06,29,39,160,45,535,66,263,04*49
$GPGSV,4,4,14,538,15,258,08,539,17,318,07*75
$GAGSV,4,1,14,02,20,259,42,05,12,190,34,09,50,147,25,10,26,097,40*6F
$GAGSV,4,2,14,258,20,259,10,261,12,190,05,265,50,147,05,266,26,097,02*6B
$GAGSV,4,3,14,267,52,082,08,11,52,082,42,30,12,310,35,36,62,329,43*5D
$GAGSV,4,4,14,286,12,310,09,292,62,329,12*6F
$GNGGA,150854.500,4011.89030,N,11137.25964,W,1,14,1.30,0.00,M,1389.34,M,,*64
$GNGLL,4011.89030,N,11137.25964,W,150854.500,A*3F
$GNGSA,A,03,10,13,15,16,18,23,26,27,02,05,09,10,1.3,2.0,3.0*19
$GNRMC,150854,A,4011.89030,N,11137.25964,W,000.0,000.0,250923,000.0,E*77
$GNZDA,150854.500,25,09,2023,00,00*4D
$GNVTG,0.00,T,,M,0.00,N,0.00,K,A*23
$INTEL,KIM,2.0.0.6,140934500,2281,0,0.000,0.000,0,0.000,0.000,0.000,0.000,0.000,0.000*08
$GPGSV,3,1,12,10,30,244,41,13,27,052,42,15,54,086,45,16,20,287,40*7D
$GPGSV,3,2,12,18,71,001,45,23,66,263,47,26,15,258,36,27,17,318,40*76
$GPGSV,3,3,12,522,30,244,06,29,39,160,45,535,66,263,04,539,17,318,07*4B
$GAGSV,4,1,14,02,20,259,42,05,12,190,35,09,50,147,25,10,26,097,41*6F
$GAGSV,4,2,14,258,20,259,07,261,12,190,05,265,50,147,05,266,26,097,02*6D
$GAGSV,4,3,14,267,52,082,08,11,52,082,42,30,12,310,35,36,62,329,43*5D
$GAGSV,4,4,14,286,12,310,02,292,62,329,10*66
$GNGGA,150855.000,4011.89030,N,11137.25963,W,1,14,1.30,0.00,M,1389.33,M,,*60
$GNGLL,4011.89030,N,11137.25963,W,150855.000,A*3C
$GNGSA,A,03,10,13,15,16,18,23,26,27,02,05,09,10,1.3,2.0,3.0*19
$GNRMC,150855,A,4011.89030,N,11137.25963,W,000.0,000.0,250923,000.0,E*71
$GNZDA,150855.000,25,09,2023,00,00*49
$GNVTG,0.00,T,,M,0.00,N,0.00,K,A*23
$INTEL,KIM,2.0.0.6,140935000,2281,0,0.000,0.000,0,0.000,0.000,0.000,0.000,0.000,0.000*0C
$GNGGA,150855.500,4011.89030,N,11137.25964,W,1,14,1.30,0.00,M,1389.32,M,,*63
$GNGLL,4011.89030,N,11137.25964,W,150855.500,A*3E
$GNGSA,A,03,10,13,15,16,18,23,26,27,02,05,09,10,1.3,2.0,3.0*19
$GPGSV,3,1,12,10,30,244,42,13,27,052,42,15,54,086,45,16,20,287,40*7E
$GPGSV,3,2,12,18,71,001,45,23,66,263,47,26,15,258,36,27,17,318,40*76
$GPGSV,3,3,12,522,30,244,06,29,39,160,45,535,66,263,04,539,17,318,07*4B
$GAGSV,4,1,14,02,20,259,42,05,12,190,35,09,50,147,25,10,26,097,41*6F
$GAGSV,4,2,14,258,20,259,07,261,12,190,05,265,50,147,05,266,26,097,17*69
$GAGSV,4,3,14,267,52,082,08,11,52,082,42,30,12,310,35,36,62,329,43*5D
$GAGSV,4,4,14,286,12,310,02,292,62,329,07*60
$GNRMC,150855,A,4011.89030,N,11137.25964,W,000.0,000.0,250923,000.0,E*76
$GNZDA,150855.500,25,09,2023,00,00*4C
$GNVTG,0.00,T,,M,0.00,N,0.00,K,A*23
$INTEL,KIM,2.0.0.6,140935500,2281,0,0.000,0.000,0,0.000,0.000,0.000,0.000,0.000,0.000*09
$GPGSV,3,1,12,10,30,244,42,13,27,052,42,15,54,086,45,16,20,287,41*7F
$GPGSV,3,2,12,18,71,001,45,23,66,263,47,26,15,258,36,27,17,318,40*76
$GPGSV,3,3,12,522,30,244,06,29,39,160,45,535,66,263,16,539,17,318,07*48
$GAGSV,4,1,14,02,20,259,42,05,12,190,35,09,50,147,25,10,26,097,41*6F
$GAGSV,4,2,14,258,20,259,07,261,12,190,05,265,50,147,05,266,26,097,13*6D
$GAGSV,4,3,14,267,52,082,08,11,52,082,42,30,12,310,35,36,62,329,43*5D
$GAGSV,4,4,14,286,12,310,10,292,62,329,07*63
$GNGGA,150856.000,4011.89030,N,11137.25965,W,1,14,1.30,0.00,M,1389.30,M,,*66
$GNGLL,4011.89030,N,11137.25965,W,150856.000,A*39
$GNGSA,A,03,10,13,15,16,18,23,26,27,02,05,09,10,1.3,2.0,3.0*19
$GNRMC,150856,A,4011.89030,N,11137.25965,W,000.0,000.0,250923,000.0,E*74
$GNZDA,150856.000,25,09,2023,00,00*4A
$GNVTG,0.00,T,,M,0.00,N,0.00,K,A*23
$INTEL,KIM,2.0.0.6,140936000,2281,0,0.000,0.000,0,0.000,0.000,0.000,0.000,0.000,0.000*0F
$GPGSV,3,1,12,10,30,244,41,13,27,052,42,15,54,086,45,16,20,287,40*7D
$GPGSV,3,2,12,18,71,001,45,23,66,263,46,26,15,258,36,27,17,318,40*77
$GPGSV,3,3,12,522,30,244,06,29,39,160,44,535,66,263,13,539,17,318,07*4C
$GAGSV,4,1,14,02,20,259,41,05,12,190,34,09,50,147,25,10,26,097,40*6C
$GAGSV,4,2,14,258,20,259,07,261,12,190,05,265,50,147,05,266,26,097,12*6C
$GAGSV,4,3,14,267,52,082,08,11,52,082,41,30,12,310,34,36,62,329,42*5E
$GAGSV,4,4,14,286,12,310,10,292,62,329,07*63
$GNGGA,150856.500,4011.89030,N,11137.25964,W,1,14,1.30,0.00,M,1389.29,M,,*6A
$GNGLL,4011.89030,N,11137.25964,W,150856.500,A*3D
$GNGSA,A,03,10,13,15,16,18,23,26,27,02,05,09,10,1.3,2.0,3.0*19
$GNRMC,150856,A,4011.89030,N,11137.25964,W,000.0,000.0,250923,000.0,E*75
$GNZDA,150856.500,25,09,2023,00,00*4F
$GNVTG,0.00,T,,M,0.00,N,0.00,K,A*23
$INTEL,KIM,2.0.0.6,140936500,2281,0,0.000,0.000,0,0.000,0.000,0.000,0.000,0.000,0.000*0A
$GNGGA,150857.000,4011.89030,N,11137.25962,W,1,14,1.30,0.00,M,1389.28,M,,*69
$GNGLL,4011.89030,N,11137.25962,W,150857.000,A*3F
$GNGSA,A,03,10,13,15,16,18,23,26,27,02,05,09,10,1.3,1.0,3.0*1A
$GPGSV,3,1,12,10,30,244,42,13,27,052,42,15,54,086,45,16,20,287,41*7F
$GPGSV,3,2,12,18,71,001,45,23,66,263,46,26,15,258,37,27,17,318,40*76
$GPGSV,3,3,12,522,30,244,06,29,39,160,45,535,66,263,12,539,17,318,07*4C
$GAGSV,4,1,14,02,20,259,42,05,12,190,35,09,50,147,25,10,26,097,41*6F
$GAGSV,4,2,14,258,20,259,07,261,12,190,07,265,50,147,05,266,26,097,12*6E
$GAGSV,4,3,14,267,52,082,11,11,52,082,42,30,12,310,36,36,62,329,43*56
$GAGSV,4,4,14,286,12,310,10,292,62,329,13*66
$GNRMC,150857,A,4011.89030,N,11137.25962,W,000.0,000.0,250923,000.0,E*72
$GNZDA,150857.000,25,09,2023,00,00*4B
$GNVTG,0.00,T,,M,0.00,N,0.00,K,A*23
$INTEL,KIM,2.0.0.6,140937000,2281,0,0.000,0.000,0,0.000,0.000,0.000,0.000,0.000,0.000*0E
$GPGSV,3,1,12,10,30,244,42,13,27,052,42,15,54,086,45,16,20,287,41*7F
$GPGSV,3,2,12,18,71,001,45,23,66,263,47,26,15,258,37,27,17,318,40*77
$GPGSV,3,3,12,522,30,244,06,29,39,160,45,535,66,263,11,539,17,318,07*4F
$GAGSV,4,1,14,02,20,259,42,05,12,190,35,09,50,147,25,10,26,097,41*6F
$GAGSV,4,2,14,258,20,259,07,261,12,190,05,265,50,147,05,266,26,097,12*6C
$GAGSV,4,3,14,267,52,082,11,11,52,082,42,30,12,310,35,36,62,329,43*55
$GAGSV,4,4,14,286,12,310,02,292,62,329,08*6F
$GNGGA,150857.500,4011.89030,N,11137.25960,W,1,14,1.30,0.00,M,1389.27,M,,*61
$GNGLL,4011.89030,N,11137.25960,W,150857.500,A*38
$GNGSA,A,03,10,13,15,16,18,23,26,27,02,05,09,10,1.3,2.0,3.0*19
$GNRMC,150857,A,4011.89030,N,11137.25960,W,000.0,000.0,250923,000.0,E*70
$GNZDA,150857.500,25,09,2023,00,00*4E
$GNVTG,0.00,T,,M,0.00,N,0.00,K,A*23
$INTEL,KIM,2.0.0.6,140937500,2281,0,0.000,0.000,0,0.000,0.000,0.000,0.000,0.000,0.000*0B
$GPGSV,3,1,12,10,30,244,42,13,27,052,42,15,54,086,45,16,20,287,41*7F
$GPGSV,3,2,12,18,71,001,45,23,66,263,47,26,15,258,37,27,17,318,40*77
$GPGSV,3,3,12,522,30,244,06,29,39,160,45,535,66,263,08,539,17,318,07*47
$GAGSV,4,1,14,02,20,259,42,05,12,190,35,09,50,147,25,10,26,097,41*6F
$GAGSV,4,2,14,258,20,259,07,261,12,190,05,265,50,147,16,266,26,097,10*6C
$GAGSV,4,3,14,267,52,082,11,11,52,082,42,30,12,310,35,36,62,329,43*55
$GAGSV,4,4,14,286,12,310,02,292,62,329,08*6F
$GNGGA,150858.000,4011.89030,N,11137.25959,W,1,14,1.30,0.00,M,1389.26,M,,*60
$GNGLL,4011.89030,N,11137.25959,W,150858.000,A*38
$GNGSA,A,03,10,13,15,16,18,23,26,27,02,05,09,10,1.3,2.0,3.0*19
$GNRMC,150858,A,4011.89030,N,11137.25959,W,000.0,000.0,250923,000.0,E*75
$GNZDA,150858.000,25,09,2023,00,00*44
$GNVTG,0.00,T,,M,0.00,N,0.00,K,A*23
$INTEL,KIM,2.0.0.6,140938000,2281,0,0.000,0.000,0,0.000,0.000,0.000,0.000,0.000,0.000*01
$GPGSV,3,1,12,10,30,244,42,13,27,052,42,15,54,086,45,16,20,287,41*7F
$GPGSV,3,2,12,18,71,001,45,23,66,263,47,26,15,258,37,27,17,318,39*79
$GPGSV,3,3,12,522,30,244,05,29,39,160,45,535,66,263,08,539,17,318,07*44
$GAGSV,4,1,14,02,20,259,42,05,12,190,35,09,50,147,25,10,26,097,41*6F
$GAGSV,4,2,14,258,20,259,02,261,12,190,05,265,50,147,11,266,26,097,10*6E
$GAGSV,4,3,14,267,52,082,11,11,52,082,42,30,12,310,35,36,62,329,43*55
$GAGSV,4,4,14,286,12,310,02,292,62,329,05*62
$GNGGA,150858.500,4011.89032,N,11137.25957,W,1,14,1.30,0.00,M,1389.25,M,,*6A
$GNGLL,4011.89032,N,11137.25957,W,150858.500,A*31
$GNGSA,A,03,10,13,15,16,18,23,26,27,02,05,09,10,1.3,2.0,3.0*19
$GNRMC,150858,A,4011.89032,N,11137.25957,W,000.0,000.0,250923,000.0,E*79
$GNZDA,150858.500,25,09,2023,00,00*41
$GNVTG,0.00,T,,M,0.00,N,0.00,K,A*23
$INTEL,KIM,2.0.0.6,140938500,2281,0,0.000,0.000,0,0.000,0.000,0.000,0.000,0.000,0.000*04
$GPGSV,3,1,12,10,30,244,42,13,27,052,42,15,54,086,45,16,20,287,41*7F
$GPGSV,3,2,12,18,71,001,45,23,66,263,47,26,15,258,37,27,17,318,40*77
$GPGSV,3,3,12,522,30,244,05,29,39,160,45,535,66,263,08,539,17,318,07*44
$GAGSV,4,1,14,02,20,259,42,05,12,190,35,09,50,147,25,10,26,097,40*6E
$GAGSV,4,2,14,258,20,259,02,261,12,190,12,265,50,147,10,266,26,097,08*60
$GAGSV,4,3,14,267,52,082,04,11,52,082,42,30,12,310,35,36,62,329,43*51
$GAGSV,4,4,14,286,12,310,16,292,62,329,05*67
$GNGGA,150859.000,4011.89033,N,11137.25956,W,1,14,1.30,0.00,M,1389.25,M,,*6E
$GNGLL,4011.89033,N,11137.25956,W,150859.000,A*35
$GNGSA,A,03,10,13,15,16,18,23,26,27,02,05,09,10,1.3,2.0,3.0*19
$GNRMC,150859,A,4011.89033,N,11137.25956,W,000.0,000.0,250923,000.0,E*78
$GNZDA,150859.000,25,09,2023,00,00*45
$GNVTG,0.00,T,,M,0.00,N,0.00,K,A*23
$INTEL,KIM,2.0.0.6,140939000,2281,0,0.000,0.000,0,0.000,0.000,0.000,0.000,0.000,0.000*00
$GPGSV,3,1,12,10,30,244,42,13,27,052,42,15,54,086,45,16,20,287,41*7F
$GPGSV,3,2,12,18,71,001,45,23,66,263,46,26,15,258,37,27,17,318,40*76
$GPGSV,3,3,12,522,30,244,05,29,39,160,45,535,66,263,08,539,17,318,07*44
$GAGSV,4,1,14,02,20,259,42,05,12,190,35,09,50,147,25,10,26,097,41*6F
$GAGSV,4,2,14,258,20,259,02,261,12,190,12,265,50,147,10,266,26,097,07*6F
$GAGSV,4,3,14,267,52,082,02,11,52,082,42,30,12,310,35,36,62,329,43*57
$GAGSV,4,4,14,286,12,310,13,292,62,329,05*62
$GNGGA,150859.500,4011.89035,N,11137.25956,W,1,14,1.30,0.00,M,1389.24,M,,*6C
$GNGLL,4011.89035,N,11137.25956,W,150859.500,A*36
$GNGSA,A,03,10,13,15,16,18,23,26,27,02,05,09,10,1.3,2.0,3.0*19
$GNRMC,150859,A,4011.89035,N,11137.25956,W,000.0,000.0,250923,000.0,E*7E
$GNZDA,150859.500,25,09,2023,00,00*40
$GNVTG,0.00,T,,M,0.00,N,0.00,K,A*23
$INTEL,KIM,2.0.0.6,140939500,2281,0,0.000,0.000,0,0.000,0.000,0.000,0.000,0.000,0.000*05
$GPGSV,3,1,12,10,30,244,42,13,27,052,42,15,54,086,45,16,20,287,40*7E
$GPGSV,3,2,12,18,71,001,45,23,66,263,46,26,15,258,37,27,17,318,40*76
$GPGSV,3,3,12,522,30,244,06,29,39,160,45,535,66,263,08,539,17,318,07*47
$GAGSV,4,1,14,02,20,259,42,05,12,190,35,09,50,147,25,10,26,097,41*6F
$GAGSV,4,2,14,258,20,259,02,261,12,190,12,265,50,147,10,266,26,097,07*6F
$GAGSV,4,3,14,267,52,082,04,11,52,082,42,30,12,310,35,36,62,329,43*51
$GAGSV,4,4,14,286,12,310,13,292,62,329,05*62
$GNGGA,150900.000,4011.89036,N,11137.25956,W,1,14,1.30,0.00,M,1389.24,M,,*67
$GNGLL,4011.89036,N,11137.25956,W,150900.000,A*3D
$GNGSA,A,03,10,13,15,16,18,23,26,27,02,05,09,10,1.3,2.0,3.0*19
$GNRMC,150900,A,4011.89036,N,11137.25956,W,000.0,000.0,250923,000.0,E*70
$GNZDA,150900.000,25,09,2023,00,00*48
$GNVTG,0.00,T,,M,0.00,N,0.00,K,A*23
$INTEL,KIM,2.0.0.6,140940000,2281,0,0.000,0.000,0,0.000,0.000,0.000,0.000,0.000,0.000*0E
$GPGSV,3,1,11,10,30,244,42,13,27,052,42,15,54,086,45,16,20,287,40*7D
$GPGSV,3,2,11,18,71,001,45,23,66,263,47,26,15,258,37,27,17,318,40*74
$GPGSV,3,3,11,522,30,244,02,29,39,160,45,535,66,263,08,539,17,318,07*40
$GAGSV,4,1,14,02,20,259,42,05,12,190,36,09,50,147,25,10,26,097,41*6C
$GAGSV,4,2,14,258,20,259,02,261,12,190,12,265,50,147,10,266,26,097,07*6F
$GAGSV,4,3,14,267,52,082,04,11,52,082,42,30,12,310,35,36,62,329,43*51
$GAGSV,4,4,14,286,12,310,08,292,62,329,05*68
$GNGGA,150900.500,4011.89037,N,11137.25957,W,1,14,1.30,0.00,M,1389.23,M,,*65
$GNGLL,4011.89037,N,11137.25957,W,150900.500,A*38
$GNGSA,A,03,10,13,15,16,18,23,26,27,02,05,09,10,1.3,2.0,3.0*19
$GNRMC,150900,A,4011.89037,N,11137.25957,W,000.0,000.0,250923,000.0,E*70
$GNZDA,150900.500,25,09,2023,00,00*4D
$GNVTG,0.00,T,,M,0.00,N,0.00,K,A*23
$INTEL,KIM,2.0.0.6,140940500,2281,0,0.000,0.000,0,0.000,0.000,0.000,0.000,0.000,0.000*0B
$GPGSV,4,1,13,10,30,244,42,13,27,052,42,15,54,086,45,16,20,287,40*78
$GPGSV,4,2,13,18,71,001,45,23,66,263,46,26,15,258,37,27,17,318,39*7E
$GPGSV,4,3,13,522,30,244,02,29,39,160,45,530,71,001,20,535,66,263,08*42
$GPGSV,4,4,13,539,17,318,05,539,17,318,07*79
$GAGSV,4,1,14,02,20,259,42,05,12,190,35,09,50,147,25,10,26,097,41*6F
$GAGSV,4,2,14,258,20,259,11,261,12,190,12,265,50,147,10,266,26,097,07*6D
$GAGSV,4,3,14,267,52,082,09,11,52,082,42,30,12,310,35,36,62,329,43*5C
$GAGSV,4,4,14,286,12,310,05,292,62,329,05*65
$GNGGA,150901.000,4011.89039,N,11137.25959,W,1,14,1.30,0.00,M,1389.23,M,,*61
$GNGLL,4011.89039,N,11137.25959,W,150901.000,A*3C
$GNGSA,A,03,10,13,15,16,18,23,26,27,02,05,09,10,1.3,2.0,2.0*18
$GNRMC,150901,A,4011.89039,N,11137.25959,W,000.0,000.0,250923,000.0,E*71
$GNZDA,150901.000,25,09,2023,00,00*49
$GNVTG,0.00,T,,M,0.00,N,0.00,K,A*23
$INTEL,KIM,2.0.0.6,140941000,2281,0,0.000,0.000,0,0.000,0.000,0.000,0.000,0.000,0.000*0F
$GPGSV,4,1,13,10,30,244,42,13,27,052,42,15,54,086,45,16,20,287,40*78
$GPGSV,4,2,13,18,71,001,45,23,66,263,46,26,15,258,37,27,17,318,40*70
$GPGSV,4,3,13,522,30,244,04,29,39,160,45,530,71,001,17,535,66,263,08*40
$GPGSV,4,4,13,539,17,318,05,539,17,318,07*79
$GAGSV,4,1,14,02,20,259,42,05,12,190,35,09,50,147,25,10,26,097,41*6F
$GAGSV,4,2,14,258,20,259,09,261,12,190,12,265,50,147,05,266,26,097,07*60
$GAGSV,4,3,14,267,52,082,10,11,52,082,42,30,12,310,35,36,62,329,43*54
$GAGSV,4,4,14,286,12,310,10,292,62,329,05*61
$GNGGA,150901.500,4011.89040,N,11137.25960,W,1,14,1.30,0.00,M,1389.23,M,,*60
$GNGLL,4011.89040,N,11137.25960,W,150901.500,A*3D
$GNGSA,A,03,10,13,15,16,18,23,26,27,02,05,09,10,1.3,2.0,2.0*18
$GNRMC,150901,A,4011.89040,N,11137.25960,W,000.0,000.0,250923,000.0,E*75
$GNZDA,150901.500,25,09,2023,00,00*4C
$GNVTG,0.00,T,,M,0.00,N,0.00,K,A*23
$INTEL,KIM,2.0.0.6,140941500,2281,0,0.000,0.000,0,0.000,0.000,0.000,0.000,0.000,0.000*0A
$GPGSV,4,1,13,10,30,244,42,13,27,052,41,15,54,086,45,16,20,287,40*7B
$GPGSV,4,2,13,18,71,001,45,23,66,263,46,26,15,258,37,27,17,318,39*7E
$GPGSV,4,3,13,522,30,244,04,29,39,160,45,530,71,001,16,535,66,263,08*41
$GPGSV,4,4,13,539,17,318,04,539,17,318,07*78
$GAGSV,4,1,14,02,20,259,42,05,12,190,35,09,50,147,25,10,26,097,41*6F
$GAGSV,4,2,14,258,20,259,10,261,12,190,12,265,50,147,10,266,26,097,07*6C
$GAGSV,4,3,14,267,52,082,10,11,52,082,42,30,12,310,35,36,62,329,43*54
$GAGSV,4,4,14,286,12,310,12,292,62,329,05*63
$GNGGA,150902.000,4011.89042,N,11137.25962,W,1,14,1.30,0.00,M,1389.22,M,,*67
$GNGLL,4011.89042,N,11137.25962,W,150902.000,A*3B
$GNGSA,A,03,10,13,15,16,18,23,26,27,02,05,09,10,1.3,2.0,2.0*18
$GNRMC,150902,A,4011.89042,N,11137.25962,W,000.0,000.0,250923,000.0,E*76
$GNZDA,150902.000,25,09,2023,00,00*4A
$GNVTG,0.00,T,,M,0.00,N,0.00,K,A*23
$INTEL,KIM,2.0.0.6,140942000,2281,0,0.000,0.000,0,0.000,0.000,0.000,0.000,0.000,0.000*0C
$GPGSV,4,1,13,10,30,244,41,13,27,052,41,15,54,086,45,16,20,287,40*78
$GPGSV,4,2,13,18,71,001,44,23,66,263,46,26,15,258,37,27,17,318,39*7F
$GPGSV,4,3,13,522,30,244,04,29,39,160,44,530,71,001,14,535,66,263,08*42
$GPGSV,4,4,13,539,17,318,02,539,17,318,07*7E
$GAGSV,4,1,14,02,20,259,41,05,12,190,34,09,50,147,25,10,26,097,40*6C
$GAGSV,4,2,14,258,20,259,10,261,12,190,12,265,50,147,10,266,26,097,04*6F
$GAGSV,4,3,14,267,52,082,10,11,52,082,41,30,12,310,34,36,62,329,42*57
$GAGSV,4,4,14,286,12,310,12,292,62,329,05*63
$GNGGA,150902.500,4011.89042,N,11137.25965,W,1,14,1.30,0.00,M,1389.22,M,,*65
$GNGLL,4011.89042,N,11137.25965,W,150902.500,A*39
$GNGSA,A,03,10,13,15,16,18,23,26,27,02,05,09,10,1.3,2.0,2.0*18
$GNRMC,150902,A,4011.89042,N,11137.25965,W,000.0,000.0,250923,000.0,E*71
$GNZDA,150902.500,25,09,2023,00,00*4F
$GNVTG,0.00,T,,M,0.00,N,0.00,K,A*23
$INTEL,KIM,2.0.0.6,140942500,2281,0,0.000,0.000,0,0.000,0.000,0.000,0.000,0.000,0.000*09
$GPGSV,4,1,13,10,30,244,41,13,27,052,41,15,54,086,45,16,20,287,40*78
$GPGSV,4,2,13,18,71,001,45,23,66,263,46,26,15,258,37,27,17,318,39*7E
$GPGSV,4,3,13,522,30,244,04,29,39,160,45,530,71,001,13,535,66,263,08*44
$GPGSV,4,4,13,539,17,318,02,539,17,318,07*7E
$GAGSV,4,1,14,02,20,259,42,05,12,190,35,09,50,147,25,10,26,097,41*6F
$GAGSV,4,2,14,258,20,259,07,261,12,190,11,265,50,147,10,266,26,097,04*6A
$GAGSV,4,3,14,267,52,082,10,11,52,082,42,30,12,310,35,36,62,329,43*54
$GAGSV,4,4,14,286,12,310,12,292,62,329,05*63
$GNGGA,150903.000,4011.89042,N,11137.25966,W,1,14,1.30,0.00,M,1389.22,M,,*62
$GNGLL,4011.89042,N,11137.25966,W,150903.000,A*3E
$GNGSA,A,03,10,13,15,16,18,23,26,27,02,05,09,10,1.3,2.0,2.0*18
$GNRMC,150903,A,4011.89042,N,11137.25966,W,000.0,000.0,250923,000.0,E*73
$GNZDA,150903.000,25,09,2023,00,00*4B
$GNVTG,0.00,T,,M,0.00,N,0.00,K,A*23
$INTEL,KIM,2.0.0.6,140943000,2281,0,0.000,0.000,0,0.000,0.000,0.000,0.000,0.000,0.000*0D
$GPGSV,4,1,13,10,30,244,42,13,27,052,42,15,54,086,45,16,20,287,40*78
$GPGSV,4,2,13,18,71,001,45,23,66,264,46,26,14,258,37,27,17,318,39*78
$GPGSV,4,3,13,522,30,244,04,29,39,160,45,530,71,001,12,535,66,264,08*42
$GPGSV,4,4,13,539,17,318,05,539,17,318,07*79
$GAGSV,4,1,14,02,20,259,42,05,12,190,35,09,50,147,25,10,26,097,41*6F
$GAGSV,4,2,14,258,20,259,07,261,12,190,10,265,50,147,12,266,26,097,04*69
$GAGSV,4,3,14,267,52,082,10,11,52,082,42,30,12,310,35,36,62,329,43*54
$GAGSV,4,4,14,286,12,310,12,292,62,329,05*63
$GNGGA,150903.500,4011.89042,N,11137.25967,W,1,14,1.30,0.00,M,1389.22,M,,*66
$GNGLL,4011.89042,N,11137.25967,W,150903.500,A*3A
$GNGSA,A,03,10,13,15,16,18,23,26,27,02,05,09,10,1.3,2.0,2.0*18
$GNRMC,150903,A,4011.89042,N,11137.25967,W,000.0,000.0,250923,000.0,E*72
$GNZDA,150903.500,25,09,2023,00,00*4E
$GNVTG,0.00,T,,M,0.00,N,0.00,K,A*23
$INTEL,KIM,2.0.0.6,140943500,2281,0,0.000,0.000,0,0.000,0.000,0.000,0.000,0.000,0.000*08
$GNGGA,150904.000,4011.89043,N,11137.25967,W,1,14,1.30,0.00,M,1389.21,M,,*66
$GNGLL,4011.89043,N,11137.25967,W,150904.000,A*39
$GNGSA,A,03,10,13,15,16,18,23,26,27,02,05,09,10,1.3,2.0,2.0*18
$GPGSV,4,1,13,10,30,244,41,13,27,052,42,15,54,086,45,16,20,287,40*7B
$GPGSV,4,2,13,18,71,001,45,23,66,264,46,26,14,258,38,27,17,318,39*77
$GPGSV,4,3,13,522,30,244,04,29,39,160,45,530,71,001,10,535,66,264,08*40
$GPGSV,4,4,13,539,17,318,05,539,17,318,07*79
$GAGSV,4,1,14,02,20,259,42,05,12,190,35,09,50,147,25,10,26,097,41*6F
$GAGSV,4,2,14,258,20,259,07,261,12,190,13,265,50,147,12,266,26,097,04*6A
$GAGSV,4,3,14,267,52,082,04,11,52,082,42,30,12,310,35,36,62,329,42*50
$GAGSV,4,4,14,286,12,310,12,292,62,329,05*63
$GNRMC,150904,A,4011.89043,N,11137.25967,W,000.0,000.0,250923,000.0,E*74
$GNZDA,150904.000,25,09,2023,00,00*4C
$GNVTG,0.00,T,,M,0.00,N,0.00,K,A*23
$INTEL,KIM,2.0.0.6,140944000,2281,0,0.000,0.000,0,0.000,0.000,0.000,0.000,0.000,0.000*0A
$GPGSV,4,1,13,10,30,244,42,13,27,052,42,15,54,086,45,16,20,287,40*78
$GPGSV,4,2,13,18,71,001,45,23,66,264,46,26,14,258,37,27,17,318,39*78
$GPGSV,4,3,13,522,30,244,04,29,39,160,45,530,71,001,04,535,66,264,08*45
$GPGSV,4,4,13,539,17,318,05,539,17,318,07*79
$GAGSV,4,1,14,02,20,259,42,05,12,190,35,09,50,147,25,10,26,097,41*6F
$GAGSV,4,2,14,258,20,259,07,261,12,190,04,265,50,147,08,266,26,097,04*67
$GAGSV,4,3,14,267,52,082,11,11,52,082,42,30,12,310,35,36,62,329,43*55
$GAGSV,4,4,14,286,12,310,12,292,62,329,02*64
$GNGGA,150904.500,4011.89045,N,11137.25965,W,1,14,1.30,0.00,M,1389.21,M,,*67
$GNGLL,4011.89045,N,11137.25965,W,150904.500,A*38
$GNGSA,A,03,10,13,15,16,18,23,26,27,02,05,09,10,1.3,2.0,2.0*18
$GNRMC,150904,A,4011.89045,N,11137.25965,W,000.0,000.0,250923,000.0,E*70
$GNZDA,150904.500,25,09,2023,00,00*49
$GNVTG,0.00,T,,M,0.00,N,0.00,K,A*23
$INTEL,KIM,2.0.0.6,140944500,2281,0,0.000,0.000,0,0.000,0.000,0.000,0.000,0.000,0.000*0F
$GPGSV,4,1,13,10,30,244,42,13,27,052,42,15,54,086,45,16,20,287,40*78
$GPGSV,4,2,13,18,71,001,45,23,66,264,47,26,14,258,38,27,17,318,40*78
$GPGSV,4,3,13,522,30,244,04,29,39,160,45,530,71,001,04,535,66,264,08*45
$GPGSV,4,4,13,539,17,318,05,539,17,318,07*79
$GAGSV,4,1,14,02,20,259,42,05,12,190,34,09,50,147,25,10,26,097,41*6E
$GAGSV,4,2,14,258,20,259,07,261,12,190,10,265,50,147,08,266,26,097,04*62
$GAGSV,4,3,14,267,52,082,09,11,52,082,42,30,12,310,35,36,62,329,43*5C
$GAGSV,4,4,14,286,12,310,12,292,62,329,02*64
$GNGGA,150905.000,4011.89047,N,11137.25961,W,1,14,1.30,0.00,M,1389.20,M,,*64
$GNGLL,4011.89047,N,11137.25961,W,150905.000,A*3A
$GNGSA,A,03,10,13,15,16,18,23,26,27,02,05,09,10,1.3,2.0,2.0*18
$GNRMC,150905,A,4011.89047,N,11137.25961,W,000.0,000.0,250923,000.0,E*77
$GNZDA,150905.000,25,09,2023,00,00*4D
$GNVTG,0.00,T,,M,0.00,N,0.00,K,A*23
$INTEL,KIM,2.0.0.6,140945000,2281,0,0.000,0.000,0,0.000,0.000,0.000,0.000,0.000,0.000*0B
$GPGSV,4,1,13,10,30,244,42,13,27,052,42,15,54,086,45,16,20,287,40*78
$GPGSV,4,2,13,18,71,001,45,23,66,264,47,26,14,258,38,27,17,318,39*76
$GPGSV,4,3,13,522,30,244,04,29,39,160,45,530,71,001,04,535,66,264,08*45
$GPGSV,4,4,13,539,17,318,05,539,17,318,07*79
$GAGSV,4,1,14,02,20,259,42,05,12,190,34,09,50,147,25,10,26,097,41*6E
$GAGSV,4,2,14,258,20,259,07,261,12,190,06,265,50,147,08,266,26,097,04*65
$GAGSV,4,3,14,267,52,082,13,11,52,082,42,30,12,310,35,36,62,329,42*56
$GAGSV,4,4,14,286,12,310,10,292,62,329,02*66
$GNGGA,150905.500,4011.89049,N,11137.25958,W,1,14,1.30,0.00,M,1389.17,M,,*61
$GNGLL,4011.89049,N,11137.25958,W,150905.500,A*3B
$GNGSA,A,03,10,13,15,16,18,23,26,27,02,05,09,10,1.3,2.0,2.0*18
$GNRMC,150905,A,4011.89049,N,11137.25958,W,000.0,000.0,250923,000.0,E*73
$GNZDA,150905.500,25,09,2023,00,00*48
$GNVTG,0.00,T,,M,0.00,N,0.00,K,A*23
$INTEL,KIM,2.0.0.6,140945500,2281,0,0.000,0.000,0,0.000,0.000,0.000,0.000,0.000,0.000*0E
$GPGSV,3,1,12,10,30,244,42,13,27,052,42,15,54,086,45,16,20,287,40*7E
$GPGSV,3,2,12,18,71,001,45,23,66,264,46,26,14,258,38,27,17,318,39*71
$GPGSV,3,3,12,522,30,244,04,29,39,160,45,530,71,001,04,539,17,318,05*4E
$GAGSV,4,1,14,02,20,259,42,05,12,190,34,09,50,147,25,10,26,097,41*6E
$GAGSV,4,2,14,258,20,259,07,261,12,190,05,265,50,147,08,266,26,097,04*66
$GAGSV,4,3,14,267,52,082,10,11,52,082,42,30,12,310,35,36,62,329,42*55
$GAGSV,4,4,14,286,12,310,10,292,62,329,14*61
$GNGGA,150906.000,4011.89053,N,11137.25955,W,1,14,1.30,0.00,M,1389.14,M,,*62
$GNGLL,4011.89053,N,11137.25955,W,150906.000,A*3B
$GNGSA,A,03,10,13,15,16,18,23,26,27,02,05,09,10,1.3,2.0,3.0*19
$GNRMC,150906,A,4011.89053,N,11137.25955,W,000.0,000.0,250923,000.0,E*76
$GNZDA,150906.000,25,09,2023,00,00*4E
$GNVTG,0.00,T,,M,0.00,N,0.00,K,A*23
$INTEL,KIM,2.0.0.6,140946000,2281,0,0.000,0.000,0,0.000,0.000,0.000,0.000,0.000,0.000*08
$GPGSV,3,1,12,10,30,244,42,13,27,052,42,15,54,086,45,16,20,287,40*7E
$GPGSV,3,2,12,18,71,001,45,23,66,264,46,26,14,258,37,27,17,318,40*70
$GPGSV,3,3,12,522,30,244,04,29,39,160,45,530,71,001,04,539,17,318,05*4E
$GAGSV,4,1,14,02,20,259,42,05,12,190,34,09,50,147,25,10,26,097,41*6E
$GAGSV,4,2,14,258,20,259,02,261,12,190,05,265,50,147,08,266,26,097,12*64
$GAGSV,4,3,14,267,52,082,11,11,52,082,42,30,12,310,35,36,62,329,42*54
$GAGSV,4,4,14,286,12,310,10,292,62,329,13*66
$GNGGA,150906.500,4011.89058,N,11137.25954,W,1,14,1.30,0.00,M,1389.11,M,,*68
$GNGLL,4011.89058,N,11137.25954,W,150906.500,A*34
$GNGSA,A,03,10,13,15,16,18,23,26,27,02,05,09,10,1.3,2.0,2.0*18
$GNRMC,150906,A,4011.89058,N,11137.25954,W,000.0,000.0,250923,000.0,E*7C
$GNZDA,150906.500,25,09,2023,00,00*4B
$GNVTG,0.00,T,,M,0.00,N,0.00,K,A*23
$INTEL,KIM,2.0.0.6,140946500,2281,0,0.000,0.000,0,0.000,0.000,0.000,0.000,0.000,0.000*0D
$GPGSV,3,1,12,10,30,244,42,13,27,052,42,15,54,086,46,16,20,287,40*7D
$GPGSV,3,2,12,18,71,001,45,23,66,264,46,26,14,258,38,27,17,318,40*7F
$GPGSV,3,3,12,522,30,244,04,29,39,160,45,530,71,001,04,539,17,318,05*4E
$GAGSV,4,1,14,02,20,259,42,05,12,190,34,09,50,147,25,10,26,097,41*6E
$GAGSV,4,2,14,258,20,259,02,261,12,190,09,265,50,147,08,266,26,097,13*69
$GAGSV,4,3,14,267,52,082,10,11,52,082,42,30,12,310,35,36,62,329,42*55
$GAGSV,4,4,14,286,12,310,09,292,62,329,13*6E
$GNGGA,150907.000,4011.89063,N,11137.25956,W,1,14,1.30,0.00,M,1389.06,M,,*60
$GNGLL,4011.89063,N,11137.25956,W,150907.000,A*3A
$GNGSA,A,03,10,13,15,16,18,23,26,27,02,05,09,10,1.3,2.0,2.0*18
$GNRMC,150907,A,4011.89063,N,11137.25956,W,000.0,000.0,250923,000.0,E*77
$GNZDA,150907.000,25,09,2023,00,00*4F
$GNVTG,0.00,T,,M,0.00,N,0.00,K,A*23
$INTEL,KIM,2.0.0.6,140947000,2281,0,0.000,0.000,0,0.000,0.000,0.000,0.000,0.000,0.000*09
$GPGSV,3,1,12,10,30,244,42,13,27,052,42,15,54,086,46,16,20,287,39*73
$GPGSV,3,2,12,18,71,001,45,23,66,264,46,26,14,258,38,27,17,318,40*7F
$GPGSV,3,3,12,522,30,244,04,29,39,160,45,530,71,001,04,539,17,318,05*4E
$GAGSV,4,1,14,02,20,259,42,05,12,190,34,09,50,147,24,10,26,097,41*6F
$GAGSV,4,2,14,258,20,259,02,261,12,190,09,265,50,147,02,266,26,097,07*66
$GAGSV,4,3,14,267,52,082,07,11,52,082,42,30,12,310,35,36,62,329,42*53
$GAGSV,4,4,14,286,12,310,08,292,62,329,13*6F
$GNGGA,150907.500,4011.89069,N,11137.25959,W,1,14,1.30,0.00,M,1389.02,M,,*64
$GNGLL,4011.89069,N,11137.25959,W,150907.500,A*3A
$GNGSA,A,03,10,13,15,16,18,23,26,27,02,05,09,10,1.3,2.0,2.0*18
$GNRMC,150907,A,4011.89069,N,11137.25959,W,000.0,000.0,250923,000.0,E*72
$GNZDA,150907.500,25,09,2023,00,00*4A
$GNVTG,0.00,T,,M,0.00,N,0.00,K,A*23
$INTEL,KIM,2.0.0.6,140947500,2281,0,0.000,0.000,0,0.000,0.000,0.000,0.000,0.000,0.000*0C
$GPGSV,4,1,13,10,30,244,42,13,27,052,42,15,54,086,46,16,20,287,39*75
$GPGSV,4,2,13,18,71,001,45,23,66,264,46,26,14,258,38,27,17,318,40*79
$GPGSV,4,3,13,522,30,244,05,29,39,160,45,530,71,001,04,535,66,264,07*4B
$GPGSV,4,4,13,539,17,318,05,539,17,318,07*79
$GAGSV,4,1,14,02,20,259,42,05,12,190,34,09,50,147,24,10,26,097,41*6F
$GAGSV,4,2,14,258,20,259,02,261,12,190,02,265,50,147,02,266,26,097,02*68
$GAGSV,4,3,14,267,52,082,07,11,52,082,42,30,12,310,35,36,62,329,43*52
$GAGSV,4,4,14,286,12,310,08,292,62,329,13*6F
$GNGGA,150908.000,4011.89073,N,11137.25964,W,1,14,1.30,0.00,M,1388.98,M,,*69
$GNGLL,4011.89073,N,11137.25964,W,150908.000,A*35
$GNGSA,A,03,10,13,15,16,18,23,26,27,02,05,09,10,1.3,2.0,2.0*18
$GNRMC,150908,A,4011.89073,N,11137.25964,W,000.0,000.0,250923,000.0,E*78
$GNZDA,150908.000,25,09,2023,00,00*40
$GNVTG,0.00,T,,M,0.00,N,0.00,K,A*23
$INTEL,KIM,2.0.0.6,140948000,2281,0,0.000,0.000,0,0.000,0.000,0.000,0.000,0.000,0.000*06
$GNGGA,150908.500,4011.89076,N,11137.25970,W,1,14,1.30,0.00,M,1388.94,M,,*60
$GNGLL,4011.89076,N,11137.25970,W,150908.500,A*30
$GNGSA,A,03,10,13,15,16,18,23,26,27,02,05,09,10,1.3,2.0,2.0*18
$GNRMC,150908,A,4011.89076,N,11137.25970,W,000.0,000.0,250923,000.0,E*78
$GNZDA,150908.500,25,09,2023,00,00*45
$GNVTG,0.00,T,,M,0.00,N,0.00,K,A*23
$GPGSV,4,1,13,10,30,244,41,13,27,052,41,15,54,086,45,16,20,287,39*76
$GPGSV,4,2,13,18,71,001,44,23,66,264,46,26,14,258,37,27,17,318,39*79
$GPGSV,4,3,13,522,30,244,05,29,39,160,44,530,71,001,04,535,66,264,07*4A
$GPGSV,4,4,13,539,17,318,05,539,17,318,07*79
$GAGSV,4,1,14,02,20,259,42,05,12,190,33,09,50,147,24,10,26,097,40*69
$GAGSV,4,2,14,258,20,259,02,261,12,190,02,265,50,147,02,266,26,097,02*68
$GAGSV,4,3,14,267,52,082,07,11,52,082,41,30,12,310,34,36,62,329,42*51
$GAGSV,4,4,14,286,12,310,09,292,62,329,13*6E
$INTEL,KIM,2.0.0.6,140948500,2281,0,0.000,0.000,0,0.000,0.000,0.000,0.000,0.000,0.000*03
$GPGSV,4,1,13,10,30,244,41,13,27,052,41,15,54,086,45,16,20,287,39*76
$GPGSV,4,2,13,18,71,001,44,23,66,264,46,26,14,258,37,27,17,318,39*79
$GPGSV,4,3,13,522,30,244,05,29,39,160,44,530,71,001,04,535,66,264,05*48
$GPGSV,4,4,13,539,17,318,05,539,17,318,07*79
$GAGSV,4,1,14,02,20,259,42,05,12,190,34,09,50,147,24,10,26,097,41*6F
$GAGSV,4,2,14,258,20,259,02,261,12,190,02,265,50,147,15,266,26,097,02*6E
$GAGSV,4,3,14,267,52,082,07,11,52,082,42,30,12,310,35,36,62,329,42*53
$GAGSV,4,4,14,286,12,310,07,292,62,329,13*60
$GNGGA,150909.000,4011.89079,N,11137.25976,W,1,14,1.30,0.00,M,1388.90,M,,*69
$GNGLL,4011.89079,N,11137.25976,W,150909.000,A*3D
$GNGSA,A,03,10,13,15,16,18,23,26,27,02,05,09,10,1.3,2.0,2.0*18
$GNRMC,150909,A,4011.89079,N,11137.25976,W,000.0,000.0,250923,000.0,E*70
$GNZDA,150909.000,25,09,2023,00,00*41
$GNVTG,0.00,T,,M,0.00,N,0.00,K,A*23
$INTEL,KIM,2.0.0.6,140949000,2281,0,0.000,0.000,0,0.000,0.000,0.000,0.000,0.000,0.000*07
$GPGSV,4,1,13,10,30,244,41,13,27,052,41,15,54,086,45,16,20,287,38*77
$GPGSV,4,2,13,18,71,001,44,23,66,264,46,26,14,258,37,27,17,318,39*79
$GPGSV,4,3,13,522,30,244,05,29,39,160,44,530,71,001,04,535,66,264,10*4C
$GPGSV,4,4,13,539,17,318,05,539,17,318,07*79
$GAGSV,4,1,14,02,20,259,42,05,12,190,34,09,50,147,24,10,26,097,41*6F
$GAGSV,4,2,14,258,20,259,02,261,12,190,02,265,50,147,13,266,26,097,02*68
$GAGSV,4,3,14,267,52,082,08,11,52,082,42,30,12,310,35,36,63,329,42*5D
$GAGSV,4,4,14,286,12,310,04,292,63,329,13*62
$GNGGA,150909.500,4011.89080,N,11137.25983,W,1,14,1.30,0.00,M,1388.86,M,,*67
$GNGLL,4011.89080,N,11137.25983,W,150909.500,A*34
$GNGSA,A,03,10,13,15,16,18,23,26,27,02,05,09,10,1.3,2.0,2.0*18
$GNRMC,150909,A,4011.89080,N,11137.25983,W,000.0,000.0,250923,000.0,E*7C
$GNZDA,150909.500,25,09,2023,00,00*44
$GNVTG,0.00,T,,M,0.00,N,0.00,K,A*23
$INTEL,KIM,2.0.0.6,140949500,2281,0,0.000,0.000,0,0.000,0.000,0.000,0.000,0.000,0.000*02
$GPGSV,4,1,13,10,30,244,42,13,27,052,41,15,54,086,45,16,20,287,38*74
$GPGSV,4,2,13,18,71,001,44,23,66,264,46,26,14,258,37,27,17,318,39*79
$GPGSV,4,3,13,522,30,244,05,29,39,160,44,530,71,001,04,535,66,264,12*4E
$GPGSV,4,4,13,539,17,318,11,539,17,318,07*7C
$GAGSV,4,1,14,02,20,259,42,05,12,190,34,09,50,147,24,10,26,097,41*6F
$GAGSV,4,2,14,258,20,259,02,261,12,190,02,265,50,147,08,266,26,097,02*62
$GAGSV,4,3,14,267,52,082,11,11,52,082,42,30,12,310,35,36,63,329,42*55
$GAGSV,4,4,14,286,12,310,04,292,63,329,09*69
$GNGGA,150910.000,4011.89081,N,11137.25992,W,1,14,1.30,0.00,M,1388.82,M,,*6F
$GNGLL,4011.89081,N,11137.25992,W,150910.000,A*38
$GNGSA,A,03,10,13,15,16,18,23,26,27,02,05,09,10,1.3,2.0,2.0*18
$GNRMC,150910,A,4011.89081,N,11137.25992,W,000.0,000.0,250923,000.0,E*75
$GNZDA,150910.000,25,09,2023,00,00*49
$GNVTG,0.00,T,,M,0.00,N,0.00,K,A*23
$INTEL,KIM,2.0.0.6,140950000,2281,0,0.000,0.000,0,0.000,0.000,0.000,0.000,0.000,0.000*0F
$GNGGA,150910.500,4011.89083,N,11137.25999,W,1,14,1.30,0.00,M,1388.79,M,,*67
$GNGLL,4011.89083,N,11137.25999,W,150910.500,A*34
$GNGSA,A,03,10,13,15,16,18,23,26,27,02,05,09,10,1.3,2.0,2.0*18
$GPGSV,4,1,13,10,30,244,42,13,27,052,41,15,54,086,45,16,20,287,38*74
$GPGSV,4,2,13,18,71,001,44,23,66,264,46,26,14,258,37,27,17,318,39*79
$GPGSV,4,3,13,522,30,244,05,29,39,160,45,530,71,001,04,535,66,264,12*4F
$GPGSV,4,4,13,539,17,318,09,539,17,318,07*75
$GAGSV,4,1,14,02,20,259,42,05,12,190,34,09,50,147,24,10,26,097,41*6F
$GAGSV,4,2,14,258,20,259,02,261,12,190,02,265,50,147,02,266,26,097,08*62
$GAGSV,4,3,14,267,52,082,10,11,52,082,42,30,12,310,35,36,63,329,42*54
$GAGSV,4,4,14,286,12,310,04,292,63,329,12*63
$GNRMC,150910,A,4011.89083,N,11137.25999,W,000.0,000.0,250923,000.0,E*7C
$GNZDA,150910.500,25,09,2023,00,00*4C
$GNVTG,0.00,T,,M,0.00,N,0.00,K,A*23
$INTEL,KIM,2.0.0.6,140950500,2281,0,0.000,0.000,0,0.000,0.000,0.000,0.000,0.000,0.000*0A
$GPGSV,4,1,13,10,30,244,42,13,27,052,41,15,54,086,45,16,20,287,38*74
$GPGSV,4,2,13,18,71,001,44,23,66,264,46,26,14,258,37,27,17,318,39*79
$GPGSV,4,3,13,522,30,244,05,29,39,160,44,530,71,001,04,535,66,264,09*44
$GPGSV,4,4,13,539,17,318,09,539,17,318,07*75
$GAGSV,4,1,14,02,20,259,42,05,12,190,34,09,50,147,24,10,26,097,41*6F
$GAGSV,4,2,14,258,20,259,02,261,12,190,02,265,50,147,02,266,26,097,08*62
$GAGSV,4,3,14,267,52,082,10,11,52,082,42,30,12,310,35,36,63,329,42*54
$GAGSV,4,4,14,286,12,310,04,292,63,329,10*61
$GNGGA,150911.000,4011.89084,N,11137.26005,W,1,14,1.30,0.00,M,1388.76,M,,*64
$GNGLL,4011.89084,N,11137.26005,W,150911.000,A*38
$GNGSA,A,03,10,13,15,16,18,23,26,27,02,05,09,10,1.3,1.0,2.0*1B
$GNRMC,150911,A,4011.89084,N,11137.26005,W,000.0,000.0,250923,000.0,E*75
$GNZDA,150911.000,25,09,2023,00,00*48
$GNVTG,0.00,T,,M,0.00,N,0.00,K,A*23
$INTEL,KIM,2.0.0.6,140951000,2281,0,0.000,0.000,0,0.000,0.000,0.000,0.000,0.000,0.000*0E
$GPGSV,3,1,12,10,30,244,42,13,27,052,41,15,54,086,45,16,20,287,38*72
$GPGSV,3,2,12,18,71,001,44,23,66,264,46,26,14,258,37,27,17,318,39*7F
$GPGSV,3,3,12,522,30,244,05,29,39,160,44,535,66,264,05,539,17,318,09*41
$GAGSV,4,1,14,02,20,259,42,05,12,190,34,09,50,147,25,10,26,097,41*6E
$GAGSV,4,2,14,258,20,259,02,261,12,190,05,265,50,147,02,266,26,097,08*65
$GAGSV,4,3,14,267,52,082,10,11,52,082,42,30,12,310,35,36,63,329,42*54
$GAGSV,4,4,14,286,12,310,04,292,63,329,09*69
$GNGGA,150911.500,4011.89085,N,11137.26008,W,1,14,1.30,0.00,M,1388.73,M,,*68
$GNGLL,4011.89085,N,11137.26008,W,150911.500,A*31
$GNGSA,A,03,10,13,15,16,18,23,26,27,02,05,09,10,1.3,1.0,2.0*1B
$GNRMC,150911,A,4011.89085,N,11137.26008,W,000.0,000.0,250923,000.0,E*79
$GNZDA,150911.500,25,09,2023,00,00*4D
$GNVTG,0.00,T,,M,0.00,N,0.00,K,A*23
$INTEL,KIM,2.0.0.6,140951500,2281,0,0.000,0.000,0,0.000,0.000,0.000,0.000,0.000,0.000*0B
$GPGSV,3,1,12,10,30,244,41,13,27,052,41,15,54,086,45,16,20,287,38*71
$GPGSV,3,2,12,18,71,001,44,23,66,264,46,26,14,258,37,27,17,318,39*7F
$GPGSV,3,3,12,522,30,244,05,29,39,160,44,535,66,264,06,539,17,318,08*43
$GAGSV,4,1,14,02,20,259,42,05,12,190,34,09,50,147,24,10,26,097,41*6F
$GAGSV,4,2,14,258,20,259,02,261,12,190,05,265,50,147,02,266,26,097,08*65
$GAGSV,4,3,14,267,52,082,10,11,52,082,42,30,12,310,35,36,63,329,42*54
$GAGSV,4,4,14,286,12,310,04,292,63,329,09*69
$GNGGA,150912.000,4011.89086,N,11137.26011,W,1,14,1.30,0.00,M,1388.70,M,,*66
$GNGLL,4011.89086,N,11137.26011,W,150912.000,A*3C
$GNGSA,A,03,10,13,15,16,18,23,26,27,02,05,09,10,1.3,2.0,2.0*18
$GNRMC,150912,A,4011.89086,N,11137.26011,W,000.0,000.0,250923,000.0,E*71
$GNZDA,150912.000,25,09,2023,00,00*4B
$GNVTG,0.00,T,,M,0.00,N,0.00,K,A*23
$INTEL,KIM,2.0.0.6,140952000,2281,0,0.000,0.000,0,0.000,0.000,0.000,0.000,0.000,0.000*0D
$GPGSV,3,1,12,10,30,244,42,13,27,052,41,15,54,086,45,16,20,287,38*72
$GPGSV,3,2,12,18,71,001,44,23,66,264,46,26,14,258,37,27,17,318,39*7F
$GPGSV,3,3,12,522,30,244,05,29,39,160,44,535,66,264,04,539,17,318,08*41
$GAGSV,4,1,14,02,20,259,42,05,12,190,33,09,50,147,25,10,26,097,41*69
$GAGSV,4,2,14,258,20,259,02,261,12,190,05,265,50,147,06,266,26,097,08*61
$GAGSV,4,3,14,267,52,082,10,11,52,082,42,30,12,310,35,36,63,329,42*54
$GAGSV,4,4,14,286,12,310,04,292,63,329,09*69
$GNGGA,150912.500,4011.89085,N,11137.26011,W,1,14,1.30,0.00,M,1388.67,M,,*66
$GNGLL,4011.89085,N,11137.26011,W,150912.500,A*3A
$GNGSA,A,03,10,13,15,16,18,23,26,27,02,05,09,10,1.3,2.0,2.0*18
$GNRMC,150912,A,4011.89085,N,11137.26011,W,000.0,000.0,250923,000.0,E*72
$GNZDA,150912.500,25,09,2023,00,00*4E
$GNVTG,0.00,T,,M,0.00,N,0.00,K,A*23
$INTEL,KIM,2.0.0.6,140952500,2281,0,0.000,0.000,0,0.000,0.000,0.000,0.000,0.000,0.000*08
$GPGSV,3,1,12,10,30,244,42,13,27,052,41,15,54,086,46,16,20,287,38*71
$GPGSV,3,2,12,18,71,001,44,23,66,264,46,26,14,258,37,27,17,318,39*7F
$GPGSV,3,3,12,522,30,244,05,29,39,160,44,535,66,264,04,539,17,318,08*41
$GAGSV,4,1,14,02,20,259,42,05,12,190,34,09,50,147,25,10,26,097,41*6E
$GAGSV,4,2,14,258,20,259,02,261,12,190,05,265,50,147,06,266,26,097,08*61
$GAGSV,4,3,14,267,52,082,10,11,52,082,42,30,12,310,35,36,63,329,42*54
$GAGSV,4,4,14,286,12,310,04,292,63,329,09*69
$GNGGA,150913.000,4011.89085,N,11137.26012,W,1,14,1.30,0.00,M,1388.64,M,,*62
$GNGLL,4011.89085,N,11137.26012,W,150913.000,A*3D
$GNGSA,A,03,10,13,15,16,18,23,26,27,02,05,09,10,1.3,2.0,2.0*18
$GNRMC,150913,A,4011.89085,N,11137.26012,W,000.0,000.0,250923,000.0,E*70
$GNZDA,150913.000,25,09,2023,00,00*4A
$GNVTG,0.00,T,,M,0.00,N,0.00,K,A*23
$INTEL,KIM,2.0.0.6,140953000,2281,0,0.000,0.000,0,0.000,0.000,0.000,0.000,0.000,0.000*0C
$GPGSV,3,1,12,10,30,244,42,13,27,052,41,15,54,086,46,16,20,287,38*71
$GPGSV,3,2,12,18,71,001,45,23,66,264,46,26,14,258,37,27,17,318,39*7E
$GPGSV,3,3,12,522,30,244,05,29,39,160,44,535,66,264,04,539,17,318,08*41
$GAGSV,4,1,14,02,20,259,42,05,12,190,34,09,50,147,25,10,26,097,41*6E
$GAGSV,4,2,14,258,20,259,02,261,12,190,08,265,50,147,06,266,26,097,08*6C
$GAGSV,4,3,14,267,52,082,10,11,52,082,42,30,12,310,35,36,63,329,42*54
$GAGSV,4,4,14,286,12,310,04,292,63,329,06*66
$GNGGA,150913.500,4011.89086,N,11137.26013,W,1,14,1.30,0.00,M,1388.62,M,,*63
$GNGLL,4011.89086,N,11137.26013,W,150913.500,A*3A
$GNGSA,A,03,10,13,15,16,18,23,26,27,02,05,09,10,1.3,2.0,2.0*18
$GNRMC,150913,A,4011.89086,N,11137.26013,W,000.0,000.0,250923,000.0,E*72
$GNZDA,150913.500,25,09,2023,00,00*4F
$GNVTG,0.00,T,,M,0.00,N,0.00,K,A*23
$INTEL,KIM,2.0.0.6,140953500,2281,0,0.000,0.000,0,0.000,0.000,0.000,0.000,0.000,0.000*09
$GPGSV,3,1,12,10,30,244,42,13,27,052,41,15,54,086,46,16,20,287,38*71
$GPGSV,3,2,12,18,71,001,45,23,66,264,46,26,14,258,37,27,17,318,39*7E
$GPGSV,3,3,12,522,30,244,05,29,39,160,44,535,66,264,04,539,17,318,08*41
$GAGSV,4,1,14,02,20,259,42,05,12,190,34,09,50,147,25,10,26,097,41*6E
$GAGSV,4,2,14,258,20,259,02,261,12,190,07,265,50,147,06,266,26,097,08*63
$GAGSV,4,3,14,267,52,082,08,11,52,082,42,30,12,310,35,36,63,329,42*5D
$GAGSV,4,4,14,286,12,310,21,292,63,329,06*61
$GNGGA,150914.000,4011.89087,N,11137.26012,W,1,14,1.30,0.00,M,1388.59,M,,*69
$GNGLL,4011.89087,N,11137.26012,W,150914.000,A*38
$GNGSA,A,03,10,13,15,16,18,23,26,27,02,05,09,10,1.3,2.0,2.0*18
$GNRMC,150914,A,4011.89087,N,11137.26012,W,000.0,000.0,250923,000.0,E*75
$GNZDA,150914.000,25,09,2023,00,00*4D
$GNVTG,0.00,T,,M,0.00,N,0.00,K,A*23
$INTEL,KIM,2.0.0.6,140954000,2281,0,0.000,0.000,0,0.000,0.000,0.000,0.000,0.000,0.000*0B
$GPGSV,3,1,12,10,30,245,41,13,27,052,41,15,54,086,45,16,20,286,37*7E
$GPGSV,3,2,12,18,71,002,44,23,66,264,46,26,14,258,36,27,17,318,39*7D
$GPGSV,3,3,12,522,30,245,05,29,39,160,44,535,66,264,04,539,17,318,08*40
$GAGSV,4,1,14,02,20,259,41,05,12,190,33,09,50,147,25,10,26,097,40*6B
$GAGSV,4,2,14,258,20,259,02,261,12,190,07,265,50,147,06,266,26,097,08*63
$GAGSV,4,3,14,267,52,082,08,11,52,082,41,30,12,310,34,36,63,329,41*5C
$GAGSV,4,4,14,286,12,310,17,292,63,329,06*64
$GNGGA,150914.500,4011.89087,N,11137.26010,W,1,14,1.30,0.00,M,1388.56,M,,*61
$GNGLL,4011.89087,N,11137.26010,W,150914.500,A*3F
$GNGSA,A,03,10,13,15,16,18,23,26,27,02,05,09,10,1.3,2.0,2.0*18
$GNRMC,150914,A,4011.89087,N,11137.26010,W,000.0,000.0,250923,000.0,E*77
$GNZDA,150914.500,25,09,2023,00,00*48
$GNVTG,0.00,T,,M,0.00,N,0.00,K,A*23
$INTEL,KIM,2.0.0.6,140954500,2281,0,0.000,0.000,0,0.000,0.000,0.000,0.000,0.000,0.000*0E
$GPGSV,4,1,13,10,30,245,42,13,27,052,41,15,54,086,45,16,20,286,37*7B
$GPGSV,4,2,13,18,71,002,44,23,66,264,46,26,14,258,37,27,17,318,39*7A
$GPGSV,4,3,13,522,30,245,05,29,39,160,44,535,66,264,04,538,14,258,14*4C
$GPGSV,4,4,13,539,17,318,08,539,17,318,07*74
$GAGSV,4,1,14,02,20,259,41,05,12,190,34,09,50,147,25,10,26,097,41*6D
$GAGSV,4,2,14,258,20,259,02,261,12,190,09,265,50,147,13,266,26,097,06*67
$GAGSV,4,3,14,267,52,082,08,11,52,082,42,30,12,310,35,36,63,329,42*5D
$GAGSV,4,4,14,286,12,310,15,292,63,329,06*66
$GNGGA,150915.000,4011.89088,N,11137.26007,W,1,14,1.30,0.00,M,1388.53,M,,*69
$GNGLL,4011.89088,N,11137.26007,W,150915.000,A*32
$GNGSA,A,03,10,13,15,16,18,23,26,27,02,05,09,10,1.3,1.0,2.0*1B
$GNRMC,150915,A,4011.89088,N,11137.26007,W,000.0,000.0,250923,000.0,E*7F
$GNZDA,150915.000,25,09,2023,00,00*4C
$GNVTG,0.00,T,,M,0.00,N,0.00,K,A*23
$INTEL,KIM,2.0.0.6,140955000,2281,0,0.000,0.000,0,0.000,0.000,0.000,0.000,0.000,0.000*0A
$GPGSV,4,1,13,10,30,245,42,13,27,052,41,15,54,086,45,16,20,286,38*74
