$GPGSV,4,2,13,16,57,081,42,26,33,051,40,27,12,122,17,31,15,063,43*76
$GPGSV,4,3,13,515,38,189,39,516,79,023,49,521,55,314,53,538,33,051,49*7D
$GPGSV,4,4,13,539,12,122,31*74
$GAGSV,3,1,10,259,81,044,44,03,81,044,48,261,32,113,43,05,32,113,45*6C
$GAGSV,3,2,10,264,38,308,46,08,38,308,41,280,23,043,46,24,23,043,46*6B
$GAGSV,3,3,10,281,67,097,48,25,67,097,48*55
$GNGGA,002535.500,4034.30445,N,11152.05683,W,1,11,1.30,0.00,M,1380.64,M,,*65
$GNGLL,4034.30445,N,11152.05683,W,002535.500,A*37
$GNGSA,A,03,03,04,07,09,16,26,27,31,03,05,08,24,1.3,1.0,1.0*1B
$GNRMC,002535,A,4034.30445,N,11152.05683,W,000.0,000.0,230923,000.0,E*79
$GNZDA,002535.500,23,09,2023,00,00*47
$GNVTG,0.00,T,,M,0.00,N,0.00,K,A*23
$INTEL,KIM,2.0.0.6,519935500,2280,0,0.000,0.000,0,0.000,0.000,0.000,0.000,0.000,0.000*00
$GPGSV,4,1,13,03,38,189,17,04,79,023,44,07,27,260,28,09,55,314,45*79
$GPGSV,4,2,13,16,57,081,42,26,33,051,40,27,12,122,19,31,15,063,43*78
$GPGSV,4,3,13,515,38,189,39,516,79,023,49,521,55,314,53,538,33,051,49*7D
$GPGSV,4,4,13,539,12,122,31*74
$GAGSV,3,1,10,259,81,044,44,03,81,044,48,261,32,113,43,05,32,113,45*6C
$GAGSV,3,2,10,264,38,308,46,08,38,308,42,280,23,043,46,24,23,043,46*68
$GAGSV,3,3,10,281,67,097,48,25,67,097,48*55
$GNGGA,002536.000,4034.30444,N,11152.05683,W,1,11,1.30,0.00,M,1380.61,M,,*67
$GNGLL,4034.30444,N,11152.05683,W,002536.000,A*30
$GNGSA,A,03,03,04,07,09,16,26,27,31,03,05,08,24,1.3,1.0,1.0*1B
$GNRMC,002536,A,4034.30444,N,11152.05683,W,000.0,000.0,230923,000.0,E*7B
$GNZDA,002536.000,23,09,2023,00,00*41
$GNVTG,0.00,T,,M,0.00,N,0.00,K,A*23
$INTEL,KIM,2.0.0.6,519936000,2280,0,0.000,0.000,0,0.000,0.000,0.000,0.000,0.000,0.000*06
$GPGSV,4,1,13,03,38,189,18,04,79,023,44,07,27,260,28,09,55,314,45*76
$GPGSV,4,2,13,16,57,081,42,26,33,051,40,27,12,122,18,31,15,063,43*79
$GPGSV,4,3,13,515,38,189,39,516,79,023,49,521,55,314,53,538,33,051,49*7D
$GPGSV,4,4,13,539,12,122,31*74
$GAGSV,3,1,10,259,81,044,44,03,81,044,48,261,32,113,43,05,32,113,45*6C
$GAGSV,3,2,10,264,38,308,46,08,38,308,41,280,23,043,46,24,23,043,46*6B
$GAGSV,3,3,10,281,67,097,48,25,67,097,48*55
$GNGGA,002536.500,4034.30444,N,11152.05683,W,1,11,1.30,0.00,M,1380.59,M,,*69
$GNGLL,4034.30444,N,11152.05683,W,002536.500,A*35
$GNGSA,A,03,03,04,07,09,16,26,27,31,03,05,08,24,1.3,1.0,1.0*1B
$GNRMC,002536,A,4034.30444,N,11152.05683,W,000.0,000.0,230923,000.0,E*7B
$GNZDA,002536.500,23,09,2023,00,00*44
$GNVTG,0.00,T,,M,0.00,N,0.00,K,A*23
$INTEL,KIM,2.0.0.6,519936500,2280,0,0.000,0.000,0,0.000,0.000,0.000,0.000,0.000,0.000*03
$GPGSV,4,1,13,03,38,189,17,04,79,023,44,07,27,260,28,09,55,314,45*79
$GPGSV,4,2,13,16,57,081,42,26,33,051,40,27,12,122,19,31,15,063,43*78
$GPGSV,4,3,13,515,38,189,39,516,79,023,49,521,55,314,53,538,33,051,49*7D
$GPGSV,4,4,13,539,12,122,31*74
$GAGSV,3,1,10,259,81,044,44,03,81,044,48,261,32,113,43,05,32,113,45*6C
$GAGSV,3,2,10,264,38,308,46,08,38,308,41,280,23,043,46,24,23,043,46*6B
$GAGSV,3,3,10,281,67,097,48,25,67,097,48*55
$GNGGA,002537.000,4034.30444,N,11152.05682,W,1,11,1.30,0.00,M,1380.57,M,,*62
$GNGLL,4034.30444,N,11152.05682,W,002537.000,A*30
$GNGSA,A,03,03,04,07,09,16,26,27,31,03,05,08,24,1.3,1.0,1.0*1B
$GNRMC,002537,A,4034.30444,N,11152.05682,W,000.0,000.0,230923,000.0,E*7B
$GNZDA,002537.000,23,09,2023,00,00*40
$GNVTG,0.00,T,,M,0.00,N,0.00,K,A*23
$INTEL,KIM,2.0.0.6,519937000,2280,0,0.000,0.000,0,0.000,0.000,0.000,0.000,0.000,0.000*07
$GPGSV,4,1,13,03,38,189,18,04,79,023,44,07,27,260,28,09,55,314,45*76
$GPGSV,4,2,13,16,57,081,42,26,33,051,40,27,12,122,18,31,15,063,43*79
$GPGSV,4,3,13,515,38,189,39,516,79,023,49,521,55,314,53,538,33,051,49*7D
$GPGSV,4,4,13,539,12,122,31*74
$GAGSV,3,1,10,259,81,044,44,03,81,044,48,261,32,113,43,05,32,113,45*6C
$GAGSV,3,2,10,264,38,308,46,08,38,308,42,280,23,043,46,24,23,043,46*68
$GAGSV,3,3,10,281,67,097,48,25,67,097,48*55
$GNGGA,002537.500,4034.30444,N,11152.05682,W,1,11,1.30,0.00,M,1380.55,M,,*65
$GNGLL,4034.30444,N,11152.05682,W,002537.500,A*35
$GNGSA,A,03,03,04,07,09,16,26,27,31,03,05,08,24,1.3,1.0,1.0*1B
$GNRMC,002537,A,4034.30444,N,11152.05682,W,000.0,000.0,230923,000.0,E*7B
$GNZDA,002537.500,23,09,2023,00,00*45
$GNVTG,0.00,T,,M,0.00,N,0.00,K,A*23
$INTEL,KIM,2.0.0.6,519937500,2280,0,0.000,0.000,0,0.000,0.000,0.000,0.000,0.000,0.000*02
$GPGSV,4,1,13,03,38,189,17,04,79,023,44,07,27,260,28,09,55,314,45*79
$GPGSV,4,2,13,16,57,081,42,26,33,051,40,27,12,122,19,31,15,063,43*78
$GPGSV,4,3,13,515,38,189,39,516,79,023,49,521,55,314,53,538,33,051,49*7D
$GPGSV,4,4,13,539,12,122,31*74
$GAGSV,3,1,10,259,81,044,44,03,81,044,48,261,32,113,43,05,32,113,45*6C
$GAGSV,3,2,10,264,38,308,46,08,38,308,41,280,23,043,46,24,23,043,46*6B
$GAGSV,3,3,10,281,67,097,48,25,67,097,48*55
$GNGGA,002538.000,4034.30444,N,11152.05682,W,1,11,1.30,0.00,M,1380.52,M,,*68
$GNGLL,4034.30444,N,11152.05682,W,002538.000,A*3F
$GNGSA,A,03,03,04,07,09,16,26,27,31,03,05,08,24,1.3,1.0,1.0*1B
$GNRMC,002538,A,4034.30444,N,11152.05682,W,000.0,000.0,230923,000.0,E*74
$GNZDA,002538.000,23,09,2023,00,00*4F
$GNVTG,0.00,T,,M,0.00,N,0.00,K,A*23
$INTEL,KIM,2.0.0.6,519938000,2280,0,0.000,0.000,0,0.000,0.000,0.000,0.000,0.000,0.000*08
$GPGSV,4,1,13,03,38,189,16,04,79,023,44,07,27,260,28,09,55,314,45*78
$GPGSV,4,2,13,16,57,081,42,26,33,051,40,27,12,122,17,31,15,063,43*76
$GPGSV,4,3,13,515,38,189,39,516,79,023,49,521,55,314,53,538,33,051,49*7D
$GPGSV,4,4,13,539,12,122,31*74
$GAGSV,3,1,10,259,81,044,44,03,81,044,48,261,32,113,43,05,32,113,45*6C
$GAGSV,3,2,10,264,38,308,46,08,38,308,41,280,23,043,46,24,23,043,46*6B
$GAGSV,3,3,10,281,67,097,48,25,67,097,48*55
$GNGGA,002538.500,4034.30444,N,11152.05682,W,1,11,1.30,0.00,M,1380.50,M,,*6F
$GNGLL,4034.30444,N,11152.05682,W,002538.500,A*3A
$GNGSA,A,03,03,04,07,09,16,26,27,31,03,05,08,24,1.3,1.0,1.0*1B
$GNRMC,002538,A,4034.30444,N,11152.05682,W,000.0,000.0,230923,000.0,E*74
$GNZDA,002538.500,23,09,2023,00,00*4A
$GNVTG,0.00,T,,M,0.00,N,0.00,K,A*23
$INTEL,KIM,2.0.0.6,519938500,2280,0,0.000,0.000,0,0.000,0.000,0.000,0.000,0.000,0.000*0D
$GPGSV,4,1,13,03,38,189,16,04,79,023,44,07,27,260,28,09,55,314,45*78
$GPGSV,4,2,13,16,57,081,42,26,33,051,40,27,12,122,18,31,15,063,43*79
$GPGSV,4,3,13,515,38,189,39,516,79,023,49,521,55,314,53,538,33,051,49*7D
$GPGSV,4,4,13,539,12,122,31*74
$GAGSV,3,1,10,259,81,045,44,03,81,045,48,261,32,113,43,05,32,113,45*6C
$GAGSV,3,2,10,264,38,308,46,08,38,308,41,280,23,043,46,24,23,043,46*6B
$GAGSV,3,3,10,281,67,097,48,25,67,097,48*55
$GNGGA,002539.000,4034.30444,N,11152.05682,W,1,11,1.30,0.00,M,1380.48,M,,*62
$GNGLL,4034.30444,N,11152.05682,W,002539.000,A*3E
$GNGSA,A,03,03,04,07,09,16,26,27,31,03,05,08,24,1.3,1.0,1.0*1B
$GNRMC,002539,A,4034.30444,N,11152.05682,W,000.0,000.0,230923,000.0,E*75
$GNZDA,002539.000,23,09,2023,00,00*4E
$GNVTG,0.00,T,,M,0.00,N,0.00,K,A*23
$INTEL,KIM,2.0.0.6,519939000,2280,0,0.000,0.000,0,0.000,0.000,0.000,0.000,0.000,0.000*09
$GPGSV,4,1,13,03,38,189,17,04,79,023,44,07,27,260,28,09,55,314,45*79
$GPGSV,4,2,13,16,57,081,42,26,33,051,40,27,12,122,19,31,15,063,43*78
$GPGSV,4,3,13,515,38,189,39,516,79,023,49,521,55,314,53,538,33,051,49*7D
$GPGSV,4,4,13,539,12,122,31*74
$GAGSV,3,1,10,259,81,045,44,03,81,045,48,261,32,113,43,05,32,113,45*6C
$GAGSV,3,2,10,264,38,308,46,08,38,308,41,280,23,043,45,24,23,043,46*68
$GAGSV,3,3,10,281,67,097,48,25,67,097,48*55
$GNGGA,002539.500,4034.30444,N,11152.05682,W,1,11,1.30,0.00,M,1380.46,M,,*69
$GNGLL,4034.30444,N,11152.05682,W,002539.500,A*3B
$GNGSA,A,03,03,04,07,09,16,26,27,31,03,05,08,24,1.3,1.0,1.0*1B
$GNRMC,002539,A,4034.30444,N,11152.05682,W,000.0,000.0,230923,000.0,E*75
$GNZDA,002539.500,23,09,2023,00,00*4B
$GNVTG,0.00,T,,M,0.00,N,0.00,K,A*23
$INTEL,KIM,2.0.0.6,519939500,2280,0,0.000,0.000,0,0.000,0.000,0.000,0.000,0.000,0.000*0C
$GPGSV,4,1,13,03,38,189,15,04,79,023,44,07,27,260,28,09,55,314,45*7B
$GPGSV,4,2,13,16,57,081,42,26,33,051,40,27,12,122,19,31,15,063,42*79
$GPGSV,4,3,13,515,38,189,39,516,79,023,49,521,55,314,53,538,33,051,49*7D
$GPGSV,4,4,13,539,12,122,31*74
$GAGSV,3,1,10,259,81,045,44,03,81,045,48,261,32,113,43,05,32,113,45*6C
$GAGSV,3,2,10,264,38,308,46,08,38,308,41,280,23,043,45,24,23,043,46*68
$GAGSV,3,3,10,281,67,096,48,25,67,096,48*55
$GNGGA,002540.000,4034.30443,N,11152.05682,W,1,11,1.30,0.00,M,1380.44,M,,*67
$GNGLL,4034.30443,N,11152.05682,W,002540.000,A*37
$GNGSA,A,03,03,04,07,09,16,26,27,31,03,05,08,24,1.3,1.0,1.0*1B
$GNRMC,002540,A,4034.30443,N,11152.05682,W,000.0,000.0,230923,000.0,E*7C
$GNZDA,002540.000,23,09,2023,00,00*40
$GNVTG,0.00,T,,M,0.00,N,0.00,K,A*23
$INTEL,KIM,2.0.0.6,519940000,2280,0,0.000,0.000,0,0.000,0.000,0.000,0.000,0.000,0.000*07
$GPGSV,4,1,13,03,38,189,14,04,79,023,44,07,27,260,28,09,55,314,45*7A
$GPGSV,4,2,13,16,57,081,42,26,33,051,40,27,12,122,19,31,15,063,43*78
$GPGSV,4,3,13,515,38,189,39,516,79,023,49,521,55,314,53,538,33,051,50*75
$GPGSV,4,4,13,539,12,122,31*74
$GAGSV,3,1,10,259,81,045,44,03,81,045,48,261,32,113,43,05,32,113,45*6C
$GAGSV,3,2,10,264,38,308,46,08,38,308,41,280,23,043,45,24,23,043,46*68
$GAGSV,3,3,10,281,67,096,48,25,67,096,48*55
$GNGGA,002540.500,4034.30444,N,11152.05682,W,1,11,1.30,0.00,M,1380.42,M,,*63
$GNGLL,4034.30444,N,11152.05682,W,002540.500,A*35
$GNGSA,A,03,03,04,07,09,16,26,27,31,03,05,08,24,1.3,1.0,1.0*1B
$GNRMC,002540,A,4034.30444,N,11152.05682,W,000.0,000.0,230923,000.0,E*7B
$GNZDA,002540.500,23,09,2023,00,00*45
$GNVTG,0.00,T,,M,0.00,N,0.00,K,A*23
$INTEL,KIM,2.0.0.6,519940500,2280,0,0.000,0.000,0,0.000,0.000,0.000,0.000,0.000,0.000*02
$GPGSV,4,1,13,03,38,189,13,04,79,023,44,07,27,260,27,09,55,314,45*72
$GPGSV,4,2,13,16,57,081,42,26,33,051,40,27,12,122,19,31,15,063,43*78
$GPGSV,4,3,13,515,38,189,39,516,79,023,49,521,55,314,53,538,33,051,49*7D
$GPGSV,4,4,13,539,12,122,31*74
$GAGSV,3,1,10,259,81,045,44,03,81,045,48,261,32,113,43,05,32,113,45*6C
$GAGSV,3,2,10,264,38,308,46,08,38,308,41,280,23,043,45,24,23,043,46*68
$GAGSV,3,3,10,281,67,096,48,25,67,096,48*55
$GNGGA,002541.000,4034.30444,N,11152.05682,W,1,11,1.30,0.00,M,1380.41,M,,*64
$GNGLL,4034.30444,N,11152.05682,W,002541.000,A*31
$GNGSA,A,03,03,04,07,09,16,26,27,31,03,05,08,24,1.3,1.0,1.0*1B
$GNRMC,002541,A,4034.30444,N,11152.05682,W,000.0,000.0,230923,000.0,E*7A
$GNZDA,002541.000,23,09,2023,00,00*41
$GNVTG,0.00,T,,M,0.00,N,0.00,K,A*23
$INTEL,KIM,2.0.0.6,519941000,2280,0,0.000,0.000,0,0.000,0.000,0.000,0.000,0.000,0.000*06
$GPGSV,4,1,13,03,38,189,16,04,79,023,44,07,27,260,27,09,55,314,45*77
$GPGSV,4,2,13,16,57,081,42,26,33,051,40,27,12,122,19,31,15,063,42*79
$GPGSV,4,3,13,515,38,189,39,516,79,023,49,521,55,314,53,538,33,051,49*7D
$GPGSV,4,4,13,539,12,122,31*74
$GAGSV,3,1,10,259,81,045,44,03,81,045,48,261,32,113,43,05,32,113,46*6F
$GAGSV,3,2,10,264,38,308,46,08,38,308,41,280,23,043,45,24,23,043,46*68
$GAGSV,3,3,10,281,67,096,48,25,67,096,48*55
$GNGGA,002541.500,4034.30444,N,11152.05682,W,1,11,1.30,0.00,M,1380.39,M,,*6E
$GNGLL,4034.30444,N,11152.05682,W,002541.500,A*34
$GNGSA,A,03,03,04,07,09,16,26,27,31,03,05,08,24,1.3,1.0,1.0*1B
$GNRMC,002541,A,4034.30444,N,11152.05682,W,000.0,000.0,230923,000.0,E*7A
$GNZDA,002541.500,23,09,2023,00,00*44
$GNVTG,0.00,T,,M,0.00,N,0.00,K,A*23
$INTEL,KIM,2.0.0.6,519941500,2280,0,0.000,0.000,0,0.000,0.000,0.000,0.000,0.000,0.000*03
$GPGSV,4,1,13,03,38,189,17,04,79,023,44,07,27,260,27,09,55,314,45*76
$GPGSV,4,2,13,16,57,081,42,26,33,051,40,27,12,122,18,31,15,063,42*78
$GPGSV,4,3,13,515,38,189,39,516,79,023,49,521,55,314,53,538,33,051,49*7D
$GPGSV,4,4,13,539,12,122,30*75
$GAGSV,3,1,10,259,81,045,44,03,81,045,48,261,32,113,43,05,32,113,45*6C
$GAGSV,3,2,10,264,38,308,46,08,38,308,41,280,23,043,45,24,23,043,46*68
$GAGSV,3,3,10,281,67,096,48,25,67,096,48*55
$GNGGA,002542.000,4034.30444,N,11152.05682,W,1,11,1.30,0.00,M,1380.37,M,,*66
$GNGLL,4034.30444,N,11152.05682,W,002542.000,A*32
$GNGSA,A,03,03,04,07,09,16,26,27,31,03,05,08,24,1.3,1.0,1.0*1B
$GNRMC,002542,A,4034.30444,N,11152.05682,W,000.0,000.0,230923,000.0,E*79
$GNZDA,002542.000,23,09,2023,00,00*42
$GNVTG,0.00,T,,M,0.00,N,0.00,K,A*23
$INTEL,KIM,2.0.0.6,519942000,2280,0,0.000,0.000,0,0.000,0.000,0.000,0.000,0.000,0.000*05
$GPGSV,4,1,13,03,38,189,16,04,79,023,44,07,27,260,27,09,55,314,45*77
$GPGSV,4,2,13,16,57,081,42,26,33,051,40,27,12,122,19,31,15,063,43*78
$GPGSV,4,3,13,515,38,189,39,516,79,023,49,521,55,314,53,538,33,051,49*7D
$GPGSV,4,4,13,539,12,122,30*75
$GAGSV,3,1,10,259,81,045,44,03,81,045,48,261,32,113,43,05,32,113,46*6F
$GAGSV,3,2,10,264,38,308,46,08,38,308,42,280,23,043,45,24,23,043,46*6B
$GAGSV,3,3,10,281,67,096,48,25,67,096,48*55
$GNGGA,002542.500,4034.30444,N,11152.05681,W,1,11,1.30,0.00,M,1380.35,M,,*62
$GNGLL,4034.30444,N,11152.05681,W,002542.500,A*34
$GNGSA,A,03,03,04,07,09,16,26,27,31,03,05,08,24,1.3,1.0,1.0*1B
$GNRMC,002542,A,4034.30444,N,11152.05681,W,000.0,000.0,230923,000.0,E*7A
$GNZDA,002542.500,23,09,2023,00,00*47
$GNVTG,0.00,T,,M,0.00,N,0.00,K,A*23
$INTEL,KIM,2.0.0.6,519942500,2280,0,0.000,0.000,0,0.000,0.000,0.000,0.000,0.000,0.000*00
$GPGSV,4,1,13,03,38,189,15,04,79,023,44,07,27,260,27,09,55,314,45*74
$GPGSV,4,2,13,16,57,081,42,26,33,051,40,27,12,122,20,31,15,063,43*72
$GPGSV,4,3,13,515,38,189,39,516,79,023,49,521,55,314,53,538,33,051,49*7D
$GPGSV,4,4,13,539,12,122,30*75
$GAGSV,3,1,10,259,81,045,44,03,81,045,48,261,32,113,43,05,32,113,45*6C
$GAGSV,3,2,10,264,38,308,46,08,38,308,41,280,23,043,45,24,23,043,46*68
$GAGSV,3,3,10,281,67,096,48,25,67,096,48*55
$GNGGA,002543.000,4034.30444,N,11152.05681,W,1,11,1.30,0.00,M,1380.34,M,,*67
$GNGLL,4034.30444,N,11152.05681,W,002543.000,A*30
$GNGSA,A,03,03,04,07,09,16,26,27,31,03,05,08,24,1.3,1.0,1.0*1B
$GNRMC,002543,A,4034.30444,N,11152.05681,W,000.0,000.0,230923,000.0,E*7B
$GNZDA,002543.000,23,09,2023,00,00*43
$GNVTG,0.00,T,,M,0.00,N,0.00,K,A*23
$INTEL,KIM,2.0.0.6,519943000,2280,0,0.000,0.000,0,0.000,0.000,0.000,0.000,0.000,0.000*04
$GPGSV,4,1,13,03,38,189,12,04,79,023,44,07,27,260,27,09,55,314,45*73
$GPGSV,4,2,13,16,57,081,42,26,33,051,40,27,12,122,18,31,15,063,43*79
$GPGSV,4,3,13,515,38,189,39,516,79,023,49,521,55,314,53,538,33,051,49*7D
$GPGSV,4,4,13,539,12,122,31*74
$GAGSV,3,1,10,259,81,045,44,03,81,045,48,261,32,113,43,05,32,113,45*6C
$GAGSV,3,2,10,264,38,308,46,08,38,308,41,280,23,043,45,24,23,043,46*68
$GAGSV,3,3,10,281,67,096,48,25,67,096,48*55
$GNGGA,002543.500,4034.30444,N,11152.05681,W,1,11,1.30,0.00,M,1380.32,M,,*64
$GNGLL,4034.30444,N,11152.05681,W,002543.500,A*35
$GNGSA,A,03,03,04,07,09,16,26,27,31,03,05,08,24,1.3,1.0,1.0*1B
$GNRMC,002543,A,4034.30444,N,11152.05681,W,000.0,000.0,230923,000.0,E*7B
$GNZDA,002543.500,23,09,2023,00,00*46
$GNVTG,0.00,T,,M,0.00,N,0.00,K,A*23
$INTEL,KIM,2.0.0.6,519943500,2280,0,0.000,0.000,0,0.000,0.000,0.000,0.000,0.000,0.000*01
$GPGSV,4,1,13,03,38,189,12,04,79,023,44,07,27,260,27,09,55,314,45*73
$GPGSV,4,2,13,16,57,081,42,26,33,051,40,27,12,122,18,31,15,063,43*79
$GPGSV,4,3,13,515,38,189,39,516,79,023,49,521,55,314,53,538,33,051,50*75
$GPGSV,4,4,13,539,12,122,31*74
$GAGSV,3,1,10,259,81,045,44,03,81,045,48,261,32,113,43,05,32,113,46*6F
$GAGSV,3,2,10,264,38,308,46,08,38,308,42,280,23,043,45,24,23,043,46*6B
$GAGSV,3,3,10,281,67,096,48,25,67,096,48*55
$GNGGA,002544.000,4034.30444,N,11152.05682,W,1,11,1.30,0.00,M,1380.30,M,,*67
$GNGLL,4034.30444,N,11152.05682,W,002544.000,A*34
$GNGSA,A,03,03,04,07,09,16,26,27,31,03,05,08,24,1.3,1.0,1.0*1B
$GNRMC,002544,A,4034.30444,N,11152.05682,W,000.0,000.0,230923,000.0,E*7F
$GNZDA,002544.000,23,09,2023,00,00*44
$GNVTG,0.00,T,,M,0.00,N,0.00,K,A*23
$INTEL,KIM,2.0.0.6,519944000,2280,0,0.000,0.000,0,0.000,0.000,0.000,0.000,0.000,0.000*03
$GPGSV,4,1,13,03,38,189,16,04,79,023,45,07,27,260,26,09,55,314,45*77
$GPGSV,4,2,13,16,57,081,42,26,33,051,40,27,12,122,16,31,15,063,43*77
$GPGSV,4,3,13,515,38,189,39,516,79,023,49,521,55,314,53,538,33,051,49*7D
$GPGSV,4,4,13,539,12,122,30*75
$GAGSV,3,1,10,259,81,045,44,03,81,045,48,261,32,113,43,05,32,113,45*6C
$GAGSV,3,2,10,264,38,308,46,08,38,308,42,280,23,043,45,24,23,043,46*6B
$GAGSV,3,3,10,281,67,096,48,25,67,096,48*55
$GNGGA,002544.500,4034.30444,N,11152.05682,W,1,11,1.30,0.00,M,1380.28,M,,*6B
$GNGLL,4034.30444,N,11152.05682,W,002544.500,A*31
$GNGSA,A,03,03,04,07,09,16,26,27,31,03,05,08,24,1.3,1.0,1.0*1B
$GNRMC,002544,A,4034.30444,N,11152.05682,W,000.0,000.0,230923,000.0,E*7F
$GNZDA,002544.500,23,09,2023,00,00*41
$GNVTG,0.00,T,,M,0.00,N,0.00,K,A*23
$INTEL,KIM,2.0.0.6,519944500,2280,0,0.000,0.000,0,0.000,0.000,0.000,0.000,0.000,0.000*06
$GPGSV,4,1,13,03,38,189,17,04,79,024,45,07,27,260,26,09,55,314,45*71
$GPGSV,4,2,13,16,57,081,42,26,33,051,40,27,12,122,15,31,15,063,43*74
$GPGSV,4,3,13,515,38,189,39,516,79,024,49,521,55,314,53,538,33,051,49*7A
$GPGSV,4,4,13,539,12,122,30*75
$GAGSV,3,1,10,259,81,045,44,03,81,045,48,261,32,113,43,05,32,113,46*6F
$GAGSV,3,2,10,264,38,308,46,08,38,308,42,280,23,043,45,24,23,043,46*6B
$GAGSV,3,3,10,281,67,096,48,25,67,096,48*55
$GNGGA,002545.000,4034.30444,N,11152.05682,W,1,11,1.30,0.00,M,1380.26,M,,*61
$GNGLL,4034.30444,N,11152.05682,W,002545.000,A*35
$GNGSA,A,03,03,04,07,09,16,26,27,31,03,05,08,24,1.3,0.5,1.0*1F
$GNRMC,002545,A,4034.30444,N,11152.05682,W,000.0,000.0,230923,000.0,E*7E
$GNZDA,002545.000,23,09,2023,00,00*45
$GNVTG,0.00,T,,M,0.00,N,0.00,K,A*23
$INTEL,KIM,2.0.0.6,519945000,2280,0,0.000,0.000,0,0.000,0.000,0.000,0.000,0.000,0.000*02
$GPGSV,4,1,13,03,38,189,15,04,79,024,45,07,27,260,26,09,55,314,45*73
$GPGSV,4,2,13,16,57,081,42,26,33,051,40,27,12,122,15,31,15,063,43*74
$GPGSV,4,3,13,515,38,189,39,516,79,024,49,521,55,314,53,538,33,051,49*7A
$GPGSV,4,4,13,539,12,122,30*75
$GAGSV,3,1,10,259,81,045,44,03,81,045,48,261,32,113,43,05,32,113,45*6C
$GAGSV,3,2,10,264,38,308,46,08,38,308,41,280,23,043,45,24,23,043,46*68
$GAGSV,3,3,10,281,67,096,48,25,67,096,48*55
$GNGGA,002545.500,4034.30444,N,11152.05682,W,1,11,1.30,0.00,M,1380.25,M,,*67
$GNGLL,4034.30444,N,11152.05682,W,002545.500,A*30
$GNGSA,A,03,03,04,07,09,16,26,27,31,03,05,08,24,1.3,1.0,1.0*1B
$GNRMC,002545,A,4034.30444,N,11152.05682,W,000.0,000.0,230923,000.0,E*7E
$GNZDA,002545.500,23,09,2023,00,00*40
$GNVTG,0.00,T,,M,0.00,N,0.00,K,A*23
$INTEL,KIM,2.0.0.6,519945500,2280,0,0.000,0.000,0,0.000,0.000,0.000,0.000,0.000,0.000*07
$GPGSV,4,1,13,03,38,189,14,04,79,024,45,07,27,260,26,09,55,314,45*72
$GPGSV,4,2,13,16,57,081,42,26,33,051,40,27,12,122,15,31,15,063,43*74
$GPGSV,4,3,13,515,38,189,39,516,79,024,49,521,55,314,53,538,33,051,49*7A
$GPGSV,4,4,13,539,12,122,31*74
$GAGSV,3,1,10,259,81,045,44,03,81,045,48,261,32,113,43,05,32,113,46*6F
$GAGSV,3,2,10,264,38,308,46,08,38,308,41,280,23,043,45,24,23,043,46*68
$GAGSV,3,3,10,281,67,096,48,25,67,096,48*55
$GNGGA,002546.000,4034.30444,N,11152.05682,W,1,11,1.30,0.00,M,1380.23,M,,*67
$GNGLL,4034.30444,N,11152.05682,W,002546.000,A*36
$GNGSA,A,03,03,04,07,09,16,26,27,31,03,05,08,24,1.3,1.0,1.0*1B
$GNRMC,002546,A,4034.30444,N,11152.05682,W,000.0,000.0,230923,000.0,E*7D
$GNZDA,002546.000,23,09,2023,00,00*46
$GNVTG,0.00,T,,M,0.00,N,0.00,K,A*23
$INTEL,KIM,2.0.0.6,519946000,2280,0,0.000,0.000,0,0.000,0.000,0.000,0.000,0.000,0.000*01
$GPGSV,4,1,13,03,38,189,16,04,79,024,45,07,27,260,26,09,55,314,45*70
$GPGSV,4,2,13,16,57,081,42,26,33,051,40,27,12,122,17,31,15,063,42*77
$GPGSV,4,3,13,515,38,189,39,516,79,024,49,521,55,314,53,538,33,051,49*7A
$GPGSV,4,4,13,539,12,122,31*74
$GAGSV,3,1,10,259,81,045,44,03,81,045,48,261,32,113,43,05,32,113,45*6C
$GAGSV,3,2,10,264,38,308,46,08,38,308,41,280,23,043,45,24,23,043,46*68
$GAGSV,3,3,10,281,67,096,48,25,67,096,48*55
$GNGGA,002546.500,4034.30444,N,11152.05682,W,1,11,1.30,0.00,M,1380.21,M,,*60
$GNGLL,4034.30444,N,11152.05682,W,002546.500,A*33
$GNGSA,A,03,03,04,07,09,16,26,27,31,03,05,08,24,1.3,1.0,1.0*1B
$GNRMC,002546,A,4034.30444,N,11152.05682,W,000.0,000.0,230923,000.0,E*7D
$GNZDA,002546.500,23,09,2023,00,00*43
$GNVTG,0.00,T,,M,0.00,N,0.00,K,A*23
$INTEL,KIM,2.0.0.6,519946500,2280,0,0.000,0.000,0,0.000,0.000,0.000,0.000,0.000,0.000*04
$GPGSV,4,1,13,03,38,189,16,04,79,024,45,07,27,260,27,09,55,314,45*71
$GPGSV,4,2,13,16,57,081,42,26,33,051,40,27,12,122,17,31,15,063,42*77
$GPGSV,4,3,13,515,38,189,39,516,79,024,49,521,55,314,53,538,33,051,49*7A
$GPGSV,4,4,13,539,12,122,31*74
$GAGSV,3,1,10,259,81,045,44,03,81,045,48,261,32,113,44,05,32,113,45*6B
$GAGSV,3,2,10,264,38,308,46,08,38,308,42,280,23,043,45,24,23,043,46*6B
$GAGSV,3,3,10,281,67,096,48,25,67,096,48*55
$GNGGA,002547.000,4034.30444,N,11152.05682,W,1,11,1.30,0.00,M,1380.19,M,,*6F
$GNGLL,4034.30444,N,11152.05682,W,002547.000,A*37
$GNGSA,A,03,03,04,07,09,16,26,27,31,03,05,08,24,1.3,1.0,1.0*1B
$GNRMC,002547,A,4034.30444,N,11152.05682,W,000.0,000.0,230923,000.0,E*7C
$GNZDA,002547.000,23,09,2023,00,00*47
$GNVTG,0.00,T,,M,0.00,N,0.00,K,A*23
$INTEL,KIM,2.0.0.6,519947000,2280,0,0.000,0.000,0,0.000,0.000,0.000,0.000,0.000,0.000*00
$GPGSV,4,1,13,03,38,189,15,04,79,024,45,07,27,260,26,09,55,314,45*73
$GPGSV,4,2,13,16,57,081,42,26,33,051,40,27,12,122,18,31,15,063,42*78
$GPGSV,4,3,13,515,38,189,39,516,79,024,49,521,55,314,53,538,33,051,49*7A
$GPGSV,4,4,13,539,12,122,30*75
$GAGSV,3,1,10,259,81,045,44,03,81,045,48,261,32,113,43,05,32,113,45*6C
$GAGSV,3,2,10,264,38,308,46,08,38,308,42,280,23,043,45,24,23,043,46*6B
$GAGSV,3,3,10,281,67,096,48,25,67,096,48*55
$GNGGA,002547.500,4034.30444,N,11152.05682,W,1,11,1.30,0.00,M,1380.17,M,,*64
$GNGLL,4034.30444,N,11152.05682,W,002547.500,A*32
$GNGSA,A,03,03,04,07,09,16,26,27,31,03,05,08,24,1.3,1.0,1.0*1B
$GNRMC,002547,A,4034.30444,N,11152.05682,W,000.0,000.0,230923,000.0,E*7C
$GNZDA,002547.500,23,09,2023,00,00*42
$GNVTG,0.00,T,,M,0.00,N,0.00,K,A*23
$INTEL,KIM,2.0.0.6,519947500,2280,0,0.000,0.000,0,0.000,0.000,0.000,0.000,0.000,0.000*05
$GPGSV,4,1,13,03,38,189,17,04,79,024,45,07,27,260,27,09,55,314,45*70
$GPGSV,4,2,13,16,57,081,42,26,33,051,40,27,12,122,19,31,15,063,43*78
$GPGSV,4,3,13,515,38,189,39,516,79,024,49,521,55,314,53,538,33,051,50*72
$GPGSV,4,4,13,539,12,122,30*75
$GAGSV,3,1,10,259,81,045,44,03,81,045,48,261,32,113,43,05,32,113,45*6C
$GAGSV,3,2,10,264,38,308,46,08,38,308,42,280,23,043,45,24,23,043,46*6B
$GAGSV,3,3,10,281,67,096,48,25,67,096,48*55
$GNGGA,002548.000,4034.30444,N,11152.05682,W,1,11,1.30,0.00,M,1380.15,M,,*6C
$GNGLL,4034.30444,N,11152.05682,W,002548.000,A*38
$GNGSA,A,03,03,04,07,09,16,26,27,31,03,05,08,24,1.3,1.0,1.0*1B
$GNRMC,002548,A,4034.30444,N,11152.05682,W,000.0,000.0,230923,000.0,E*73
$GNZDA,002548.000,23,09,2023,00,00*48
$GNVTG,0.00,T,,M,0.00,N,0.00,K,A*23
$INTEL,KIM,2.0.0.6,519948000,2280,0,0.000,0.000,0,0.000,0.000,0.000,0.000,0.000,0.000*0F
$GPGSV,4,1,13,03,38,189,17,04,79,024,45,07,27,260,26,09,55,314,45*71
$GPGSV,4,2,13,16,57,081,42,26,33,051,40,27,12,122,18,31,15,063,42*78
$GPGSV,4,3,13,515,38,189,39,516,79,024,49,521,55,314,53,538,33,051,49*7A
$GPGSV,4,4,13,539,12,122,31*74
$GAGSV,3,1,10,259,81,045,44,03,81,045,48,261,32,113,43,05,32,113,45*6C
$GAGSV,3,2,10,264,38,308,46,08,38,308,42,280,23,043,45,24,23,043,46*6B
$GAGSV,3,3,10,281,67,096,48,25,67,096,48*55
$GNGGA,002548.500,4034.30445,N,11152.05682,W,1,11,1.30,0.00,M,1380.13,M,,*6E
$GNGLL,4034.30445,N,11152.05682,W,002548.500,A*3C
$GNGSA,A,03,03,04,07,09,16,26,27,31,03,05,08,24,1.3,1.0,1.0*1B
$GNRMC,002548,A,4034.30445,N,11152.05682,W,000.0,000.0,230923,000.0,E*72
$GNZDA,002548.500,23,09,2023,00,00*4D
$GNVTG,0.00,T,,M,0.00,N,0.00,K,A*23
$INTEL,KIM,2.0.0.6,519948500,2280,0,0.000,0.000,0,0.000,0.000,0.000,0.000,0.000,0.000*0A
$GPGSV,4,1,13,03,38,189,15,04,79,024,45,07,27,260,27,09,55,314,45*72
$GPGSV,4,2,13,16,57,081,42,26,33,051,39,27,12,122,19,31,15,063,42*77
$GPGSV,4,3,13,515,38,189,39,516,79,024,49,521,55,314,53,538,33,051,49*7A
$GPGSV,4,4,13,539,12,122,30*75
$GAGSV,3,1,10,259,81,045,44,03,81,045,48,261,32,113,43,05,32,113,45*6C
$GAGSV,3,2,10,264,38,308,46,08,38,308,42,280,23,043,45,24,23,043,46*6B
$GAGSV,3,3,10,281,67,096,48,25,67,096,48*55
$GNGGA,002549.000,4034.30445,N,11152.05682,W,1,11,1.30,0.00,M,1380.11,M,,*68
$GNGLL,4034.30445,N,11152.05682,W,002549.000,A*38
$GNGSA,A,03,03,04,07,09,16,26,27,31,03,05,08,24,1.3,1.0,1.0*1B
$GNRMC,002549,A,4034.30445,N,11152.05682,W,000.0,000.0,230923,000.0,E*73
$GNZDA,002549.000,23,09,2023,00,00*49
$GNVTG,0.00,T,,M,0.00,N,0.00,K,A*23
$INTEL,KIM,2.0.0.6,519949000,2280,0,0.000,0.000,0,0.000,0.000,0.000,0.000,0.000,0.000*0E
$GPGSV,4,1,13,03,38,189,13,04,79,024,45,07,27,260,27,09,55,314,45*74
$GPGSV,4,2,13,16,57,081,43,26,33,051,39,27,12,122,19,31,15,063,42*76
$GPGSV,4,3,13,515,38,189,39,516,79,024,49,521,55,314,53,538,33,051,49*7A
$GPGSV,4,4,13,539,12,122,31*74
$GAGSV,3,1,10,259,81,045,44,03,81,045,48,261,32,113,44,05,32,113,45*6B
$GAGSV,3,2,10,264,38,308,46,08,38,308,42,280,23,043,45,24,23,043,46*6B
$GAGSV,3,3,10,281,67,096,48,25,67,096,48*55
$GNGGA,002549.500,4034.30446,N,11152.05682,W,1,11,1.30,0.00,M,1380.10,M,,*6F
$GNGLL,4034.30446,N,11152.05682,W,002549.500,A*3E
$GNGSA,A,03,03,04,07,09,16,26,27,31,03,05,08,24,1.3,1.0,1.0*1B
$GNRMC,002549,A,4034.30446,N,11152.05682,W,000.0,000.0,230923,000.0,E*70
$GNZDA,002549.500,23,09,2023,00,00*4C
$GNVTG,0.00,T,,M,0.00,N,0.00,K,A*23
$INTEL,KIM,2.0.0.6,519949500,2280,0,0.000,0.000,0,0.000,0.000,0.000,0.000,0.000,0.000*0B
$GPGSV,4,1,13,03,38,189,16,04,79,024,45,07,27,260,26,09,55,314,45*70
$GPGSV,4,2,13,16,57,081,43,26,33,051,39,27,12,122,20,31,15,063,42*7C
$GPGSV,4,3,13,515,38,189,39,516,79,024,49,521,55,314,53,538,33,051,49*7A
$GPGSV,4,4,13,539,12,122,31*74
$GAGSV,3,1,10,259,81,045,44,03,81,045,48,261,32,113,43,05,32,113,45*6C
$GAGSV,3,2,10,264,38,308,46,08,38,308,42,280,23,043,45,24,23,043,46*6B
$GAGSV,3,3,10,281,67,096,48,25,67,096,48*55
$GNGGA,002550.000,4034.30447,N,11152.05682,W,1,11,1.30,0.00,M,1380.08,M,,*6A
$GNGLL,4034.30447,N,11152.05682,W,002550.000,A*32
$GNGSA,A,03,03,04,07,09,16,26,27,31,03,05,08,24,1.3,1.0,1.0*1B
$GNRMC,002550,A,4034.30447,N,11152.05682,W,000.0,000.0,230923,000.0,E*79
$GNZDA,002550.000,23,09,2023,00,00*41
$GNVTG,0.00,T,,M,0.00,N,0.00,K,A*23
$INTEL,KIM,2.0.0.6,519950000,2280,0,0.000,0.000,0,0.000,0.000,0.000,0.000,0.000,0.000*06
$GPGSV,4,1,13,03,38,189,16,04,79,024,45,07,27,260,26,09,55,314,45*70
$GPGSV,4,2,13,16,57,081,43,26,33,051,39,27,12,122,20,31,15,063,42*7C
$GPGSV,4,3,13,515,38,189,39,516,79,024,49,521,55,314,53,538,33,051,49*7A
$GPGSV,4,4,13,539,12,122,30*75
$GAGSV,3,1,10,259,81,045,45,03,81,045,48,261,32,113,43,05,32,113,45*6D
$GAGSV,3,2,10,264,38,308,46,08,38,308,42,280,23,043,45,24,23,043,46*6B
$GAGSV,3,3,10,281,67,096,48,25,67,096,48*55
$GNGGA,002550.500,4034.30447,N,11152.05682,W,1,11,1.30,0.00,M,1380.06,M,,*61
$GNGLL,4034.30447,N,11152.05682,W,002550.500,A*37
$GNGSA,A,03,03,04,07,09,16,26,27,31,03,05,08,24,1.3,1.0,1.0*1B
$GNRMC,002550,A,4034.30447,N,11152.05682,W,000.0,000.0,230923,000.0,E*79
$GNZDA,002550.500,23,09,2023,00,00*44
$GNVTG,0.00,T,,M,0.00,N,0.00,K,A*23
$INTEL,KIM,2.0.0.6,519950500,2280,0,0.000,0.000,0,0.000,0.000,0.000,0.000,0.000,0.000*03
$GPGSV,4,1,13,03,38,189,17,04,79,024,45,07,27,260,27,09,55,314,45*70
$GPGSV,4,2,13,16,57,081,43,26,33,051,39,27,12,122,22,31,15,063,42*7E
$GPGSV,4,3,13,515,38,189,39,516,79,024,49,521,55,314,53,538,33,051,49*7A
$GPGSV,4,4,13,539,12,122,31*74
$GAGSV,3,1,10,259,81,045,45,03,81,045,48,261,32,113,43,05,32,113,45*6D
$GAGSV,3,2,10,264,38,308,46,08,38,308,42,280,23,043,44,24,23,043,45*69
$GAGSV,3,3,10,281,67,096,48,25,67,096,47*5A
$GNGGA,002551.000,4034.30448,N,11152.05683,W,1,11,1.30,0.00,M,1380.04,M,,*69
$GNGLL,4034.30448,N,11152.05683,W,002551.000,A*3D
$GNGSA,A,03,03,04,07,09,16,26,27,31,03,05,08,24,1.3,1.0,1.0*1B
$GNRMC,002551,A,4034.30448,N,11152.05683,W,000.0,000.0,230923,000.0,E*76
$GNZDA,002551.000,23,09,2023,00,00*40
$GNVTG,0.00,T,,M,0.00,N,0.00,K,A*23
$INTEL,KIM,2.0.0.6,519951000,2280,0,0.000,0.000,0,0.000,0.000,0.000,0.000,0.000,0.000*07
$GPGSV,4,1,13,03,38,189,18,04,79,024,45,07,27,260,27,09,55,314,45*7F
$GPGSV,4,2,13,16,57,081,43,26,33,051,39,27,12,122,23,31,15,063,42*7F
$GPGSV,4,3,13,515,38,189,39,516,79,024,49,521,55,314,53,538,33,051,49*7A
$GPGSV,4,4,13,539,12,122,31*74
$GAGSV,3,1,10,259,81,045,45,03,81,045,48,261,32,113,44,05,32,113,45*6A
$GAGSV,3,2,10,264,38,308,46,08,38,308,42,280,23,043,44,24,23,043,45*69
$GAGSV,3,3,10,281,67,096,48,25,67,096,48*55
$GNGGA,002551.500,4034.30449,N,11152.05683,W,1,11,1.30,0.00,M,1380.02,M,,*6B
$GNGLL,4034.30449,N,11152.05683,W,002551.500,A*39
$GNGSA,A,03,03,04,07,09,16,26,27,31,03,05,08,24,1.3,0.5,1.0*1F
$GNRMC,002551,A,4034.30449,N,11152.05683,W,000.0,000.0,230923,000.0,E*77
$GNZDA,002551.500,23,09,2023,00,00*45
$GNVTG,0.00,T,,M,0.00,N,0.00,K,A*23
$INTEL,KIM,2.0.0.6,519951500,2280,0,0.000,0.000,0,0.000,0.000,0.000,0.000,0.000,0.000*02
$GPGSV,4,1,13,03,38,189,17,04,79,024,45,07,27,260,27,09,55,314,45*70
$GPGSV,4,2,13,16,57,081,43,26,33,051,39,27,12,122,22,31,15,063,42*7E
$GPGSV,4,3,13,515,38,189,39,516,79,024,49,521,55,314,53,538,33,051,49*7A
$GPGSV,4,4,13,539,12,122,31*74
$GAGSV,3,1,10,259,81,045,45,03,81,045,48,261,32,113,43,05,32,113,45*6D
$GAGSV,3,2,10,264,38,308,46,08,38,308,42,280,23,043,44,24,23,043,46*6A
$GAGSV,3,3,10,281,67,096,48,25,67,096,48*55
$GNGGA,002552.000,4034.30450,N,11152.05683,W,1,11,1.30,0.00,M,1380.01,M,,*66
$GNGLL,4034.30450,N,11152.05683,W,002552.000,A*37
$GNGSA,A,03,03,04,07,09,16,26,27,31,03,05,08,24,1.3,1.0,1.0*1B
$GNRMC,002552,A,4034.30450,N,11152.05683,W,000.0,000.0,230923,000.0,E*7C
$GNZDA,002552.000,23,09,2023,00,00*43
$GNVTG,0.00,T,,M,0.00,N,0.00,K,A*23
$INTEL,KIM,2.0.0.6,519952000,2280,0,0.000,0.000,0,0.000,0.000,0.000,0.000,0.000,0.000*04
$GPGSV,4,1,13,03,38,189,16,04,79,024,45,07,27,260,26,09,55,314,45*70
$GPGSV,4,2,13,16,57,081,43,26,33,051,39,27,12,122,22,31,15,063,42*7E
$GPGSV,4,3,13,515,38,189,39,516,79,024,49,521,55,314,53,538,33,051,49*7A
$GPGSV,4,4,13,539,12,122,31*74
$GAGSV,3,1,10,259,81,045,45,03,81,045,48,261,32,113,44,05,32,113,45*6A
$GAGSV,3,2,10,264,38,308,46,08,38,308,42,280,23,043,44,24,23,043,46*6A
$GAGSV,3,3,10,281,67,096,48,25,67,096,48*55
$GNGGA,002552.500,4034.30451,N,11152.05683,W,1,11,1.20,0.00,M,1379.99,M,,*64
$GNGLL,4034.30451,N,11152.05683,W,002552.500,A*33
$GNGSA,A,03,03,04,07,09,16,26,27,31,03,05,08,24,1.2,1.0,1.0*1A
$GNRMC,002552,A,4034.30451,N,11152.05683,W,000.0,000.0,230923,000.0,E*7D
$GNZDA,002552.500,23,09,2023,00,00*46
$GNVTG,0.00,T,,M,0.00,N,0.00,K,A*23
$INTEL,KIM,2.0.0.6,519952500,2280,0,0.000,0.000,0,0.000,0.000,0.000,0.000,0.000,0.000*01
$GPGSV,4,1,13,03,38,189,18,04,79,024,45,07,27,260,26,09,55,314,45*7E
$GPGSV,4,2,13,16,57,081,43,26,33,051,38,27,12,122,22,31,15,063,42*7F
$GPGSV,4,3,13,515,38,189,39,516,79,024,49,521,55,314,53,538,33,051,49*7A
$GPGSV,4,4,13,539,12,122,30*75
$GAGSV,3,1,10,259,81,045,45,03,81,045,48,261,32,113,44,05,32,113,45*6A
$GAGSV,3,2,10,264,38,308,46,08,38,308,42,280,23,043,44,24,23,043,46*6A
$GAGSV,3,3,10,281,67,096,48,25,67,096,48*55
$GNGGA,002553.000,4034.30451,N,11152.05683,W,1,11,1.20,0.00,M,1379.97,M,,*6E
$GNGLL,4034.30451,N,11152.05683,W,002553.000,A*37
$GNGSA,A,03,03,04,07,09,16,26,27,31,03,05,08,24,1.2,1.0,1.0*1A
$GNRMC,002553,A,4034.30451,N,11152.05683,W,000.0,000.0,230923,000.0,E*7C
$GNZDA,002553.000,23,09,2023,00,00*42
$GNVTG,0.00,T,,M,0.00,N,0.00,K,A*23
$INTEL,KIM,2.0.0.6,519953000,2280,0,0.000,0.000,0,0.000,0.000,0.000,0.000,0.000,0.000*05
$GPGSV,4,1,13,03,38,189,20,04,79,024,45,07,27,260,26,09,55,314,45*75
$GPGSV,4,2,13,16,57,081,43,26,33,051,38,27,12,122,24,31,15,063,42*79
$GPGSV,4,3,13,515,38,189,39,516,79,024,49,521,55,314,53,538,33,051,49*7A
$GPGSV,4,4,13,539,12,122,31*74
$GAGSV,3,1,10,259,81,045,45,03,81,045,48,261,32,113,44,05,32,113,45*6A
$GAGSV,3,2,10,264,38,308,46,08,38,308,42,280,23,043,44,24,23,043,46*6A
$GAGSV,3,3,10,281,67,096,48,25,67,096,48*55
$GNGGA,002553.500,4034.30453,N,11152.05683,W,1,11,1.20,0.00,M,1379.96,M,,*68
$GNGLL,4034.30453,N,11152.05683,W,002553.500,A*30
$GNGSA,A,03,03,04,07,09,16,26,27,31,03,05,08,24,1.2,1.0,1.0*1A
$GNRMC,002553,A,4034.30453,N,11152.05683,W,000.0,000.0,230923,000.0,E*7E
$GNZDA,002553.500,23,09,2023,00,00*47
$GNVTG,0.00,T,,M,0.00,N,0.00,K,A*23
$INTEL,KIM,2.0.0.6,519953500,2280,0,0.000,0.000,0,0.000,0.000,0.000,0.000,0.000,0.000*00
$GPGSV,4,1,13,03,38,189,19,04,79,024,45,07,27,260,27,09,55,314,45*7E
$GPGSV,4,2,13,16,57,081,43,26,33,051,38,27,12,122,24,31,15,063,42*79
$GPGSV,4,3,13,515,38,189,39,516,79,024,49,521,55,314,53,538,33,051,49*7A
$GPGSV,4,4,13,539,12,122,31*74
$GAGSV,3,1,10,259,81,045,45,03,81,045,48,261,32,113,44,05,32,113,45*6A
$GAGSV,3,2,10,264,38,308,46,08,38,308,42,280,23,043,44,24,23,043,45*69
$GAGSV,3,3,10,281,67,096,48,25,67,096,47*5A
$GNGGA,002554.000,4034.30454,N,11152.05683,W,1,11,1.20,0.00,M,1379.94,M,,*6F
$GNGLL,4034.30454,N,11152.05683,W,002554.000,A*35
$GNGSA,A,03,03,04,07,09,16,26,27,31,03,05,08,24,1.2,1.0,1.0*1A
$GNRMC,002554,A,4034.30454,N,11152.05683,W,000.0,000.0,230923,000.0,E*7E
$GNZDA,002554.000,23,09,2023,00,00*45
$GNVTG,0.00,T,,M,0.00,N,0.00,K,A*23
$INTEL,KIM,2.0.0.6,519954000,2280,0,0.000,0.000,0,0.000,0.000,0.000,0.000,0.000,0.000*02
$GPGSV,4,1,13,03,38,189,20,04,79,024,45,07,27,260,27,09,55,314,45*74
$GPGSV,4,2,13,16,57,081,43,26,33,051,38,27,12,122,24,31,15,063,42*79
$GPGSV,4,3,13,515,38,189,39,516,79,024,49,521,55,314,53,538,33,051,49*7A
$GPGSV,4,4,13,539,12,122,31*74
$GAGSV,3,1,10,259,81,045,45,03,81,045,48,261,32,113,44,05,32,113,45*6A
$GAGSV,3,2,10,264,38,308,46,08,38,308,42,280,23,043,44,24,23,043,46*6A
$GAGSV,3,3,10,281,67,096,48,25,67,096,47*5A
$GNGGA,002554.500,4034.30455,N,11152.05683,W,1,11,1.20,0.00,M,1379.92,M,,*6D
$GNGLL,4034.30455,N,11152.05683,W,002554.500,A*31
$GNGSA,A,03,03,04,07,09,16,26,27,31,03,05,08,24,1.2,1.0,1.0*1A
$GNRMC,002554,A,4034.30455,N,11152.05683,W,000.0,000.0,230923,000.0,E*7F
$GNZDA,002554.500,23,09,2023,00,00*40
$GNVTG,0.00,T,,M,0.00,N,0.00,K,A*23
$INTEL,KIM,2.0.0.6,519954500,2280,0,0.000,0.000,0,0.000,0.000,0.000,0.000,0.000,0.000*07
$GPGSV,4,1,13,03,38,189,20,04,79,024,45,07,27,260,27,09,55,314,45*74
$GPGSV,4,2,13,16,57,081,43,26,33,051,38,27,12,122,23,31,15,063,42*7E
$GPGSV,4,3,13,515,38,189,39,516,79,024,49,521,55,314,53,538,33,051,49*7A
$GPGSV,4,4,13,539,12,122,31*74
$GAGSV,3,1,10,259,81,045,45,03,81,045,48,261,32,113,44,05,32,113,45*6A
$GAGSV,3,2,10,264,38,308,46,08,38,308,42,280,23,043,44,24,23,043,45*69
$GAGSV,3,3,10,281,67,096,48,25,67,096,47*5A
$GNGGA,002555.000,4034.30456,N,11152.05683,W,1,11,1.20,0.00,M,1379.91,M,,*69
$GNGLL,4034.30456,N,11152.05683,W,002555.000,A*36
$GNGSA,A,03,03,04,07,09,16,26,27,31,03,05,08,24,1.2,1.0,1.0*1A
$GNRMC,002555,A,4034.30456,N,11152.05683,W,000.0,000.0,230923,000.0,E*7D
$GNZDA,002555.000,23,09,2023,00,00*44
$GNVTG,0.00,T,,M,0.00,N,0.00,K,A*23
$INTEL,KIM,2.0.0.6,519955000,2280,0,0.000,0.000,0,0.000,0.000,0.000,0.000,0.000,0.000*03
$GPGSV,4,1,13,03,38,189,20,04,79,024,45,07,27,260,27,09,55,314,45*74
$GPGSV,4,2,13,16,57,081,43,26,33,051,38,27,12,122,24,31,15,063,42*79
$GPGSV,4,3,13,515,38,189,39,516,79,024,49,521,55,314,53,538,33,051,49*7A
$GPGSV,4,4,13,539,12,122,31*74
$GAGSV,3,1,10,259,81,045,45,03,81,045,48,261,32,113,44,05,32,113,45*6A
$GAGSV,3,2,10,264,38,308,46,08,38,308,42,280,23,043,44,24,23,043,46*6A
$GAGSV,3,3,10,281,67,096,48,25,67,096,47*5A
$GNGGA,002555.500,4034.30458,N,11152.05683,W,1,11,1.20,0.00,M,1379.90,M,,*63
$GNGLL,4034.30458,N,11152.05683,W,002555.500,A*3D
$GNGSA,A,03,03,04,07,09,16,26,27,31,03,05,08,24,1.2,1.0,1.0*1A
$GNRMC,002555,A,4034.30458,N,11152.05683,W,000.0,000.0,230923,000.0,E*73
$GNZDA,002555.500,23,09,2023,00,00*41
$GNVTG,0.00,T,,M,0.00,N,0.00,K,A*23
$INTEL,KIM,2.0.0.6,519955500,2280,0,0.000,0.000,0,0.000,0.000,0.000,0.000,0.000,0.000*06
$GPGSV,4,1,13,03,38,189,21,04,79,024,45,07,27,260,27,09,55,314,45*75
$GPGSV,4,2,13,16,57,081,43,26,33,051,37,27,12,122,25,31,15,063,42*77
$GPGSV,4,3,13,515,38,189,39,516,79,024,49,521,55,314,53,538,33,051,49*7A
$GPGSV,4,4,13,539,12,122,31*74
$GAGSV,3,1,10,259,81,045,45,03,81,045,48,261,32,113,44,05,32,113,45*6A
$GAGSV,3,2,10,264,38,308,46,08,38,308,42,280,23,043,44,24,23,043,46*6A
$GAGSV,3,3,10,281,67,096,48,25,67,096,47*5A
$GNGGA,002556.000,4034.30459,N,11152.05683,W,1,11,1.20,0.00,M,1379.88,M,,*6D
$GNGLL,4034.30459,N,11152.05683,W,002556.000,A*3A
$GNGSA,A,03,03,04,07,09,16,26,27,31,03,05,08,24,1.2,1.0,1.0*1A
$GNRMC,002556,A,4034.30459,N,11152.05683,W,000.0,000.0,230923,000.0,E*71
$GNZDA,002556.000,23,09,2023,00,00*47
$GNVTG,0.00,T,,M,0.00,N,0.00,K,A*23
$INTEL,KIM,2.0.0.6,519956000,2280,0,0.000,0.000,0,0.000,0.000,0.000,0.000,0.000,0.000*00
$GPGSV,4,1,13,03,38,189,21,04,79,024,45,07,27,260,27,09,55,314,45*75
$GPGSV,4,2,13,16,57,081,43,26,33,051,37,27,12,122,25,31,15,063,42*77
$GPGSV,4,3,13,515,38,189,39,516,79,024,49,521,55,314,53,538,33,051,49*7A
$GPGSV,4,4,13,539,12,122,31*74
$GAGSV,3,1,10,259,81,045,45,03,81,045,48,261,32,113,44,05,32,113,45*6A
$GAGSV,3,2,10,264,38,308,46,08,38,308,42,280,23,043,44,24,23,043,45*69
$GAGSV,3,3,10,281,67,096,48,25,67,096,47*5A
$GNGGA,002556.500,4034.30460,N,11152.05683,W,1,11,1.20,0.00,M,1379.87,M,,*6D
$GNGLL,4034.30460,N,11152.05683,W,002556.500,A*35
$GNGSA,A,03,03,04,07,09,16,26,27,31,03,05,08,24,1.2,1.0,1.0*1A
$GNRMC,002556,A,4034.30460,N,11152.05683,W,000.0,000.0,230923,000.0,E*7B
$GNZDA,002556.500,23,09,2023,00,00*42
$GNVTG,0.00,T,,M,0.00,N,0.00,K,A*23
$INTEL,KIM,2.0.0.6,519956500,2280,0,0.000,0.000,0,0.000,0.000,0.000,0.000,0.000,0.000*05
$GPGSV,4,1,13,03,38,189,22,04,79,024,45,07,27,260,27,09,55,314,45*76
$GPGSV,4,2,13,16,57,081,43,26,33,051,37,27,12,122,24,31,15,063,42*76
$GPGSV,4,3,13,515,38,189,39,516,79,024,49,521,55,314,53,538,33,051,49*7A
$GPGSV,4,4,13,539,12,122,31*74
$GAGSV,3,1,10,259,81,045,44,03,81,045,48,261,32,113,44,05,32,113,45*6B
$GAGSV,3,2,10,264,38,308,46,08,38,308,42,280,23,043,44,24,23,043,45*69
$GAGSV,3,3,10,281,67,096,48,25,67,096,47*5A
$GNGGA,002557.000,4034.30462,N,11152.05683,W,1,11,1.20,0.00,M,1379.86,M,,*6A
$GNGLL,4034.30462,N,11152.05683,W,002557.000,A*33
$GNGSA,A,03,03,04,07,09,16,26,27,31,03,05,08,24,1.2,0.5,1.0*1E
$GNRMC,002557,A,4034.30462,N,11152.05683,W,000.0,000.0,230923,000.0,E*78
$GNZDA,002557.000,23,09,2023,00,00*46
$GNVTG,0.00,T,,M,0.00,N,0.00,K,A*23
$INTEL,KIM,2.0.0.6,519957000,2280,0,0.000,0.000,0,0.000,0.000,0.000,0.000,0.000,0.000*01
$GPGSV,4,1,13,03,38,189,23,04,79,024,45,07,27,260,27,09,55,314,45*77
$GPGSV,4,2,13,16,57,081,43,26,33,051,37,27,12,122,25,31,15,064,42*70
$GPGSV,4,3,13,515,38,189,39,516,79,024,49,521,55,314,53,538,33,051,49*7A
$GPGSV,4,4,13,539,12,122,32*77
$GAGSV,3,1,10,259,81,045,45,03,81,045,48,261,32,113,44,05,32,113,45*6A
$GAGSV,3,2,10,264,38,308,46,08,38,308,42,280,23,043,44,24,23,043,46*6A
$GAGSV,3,3,10,281,67,096,48,25,67,096,47*5A
$GNGGA,002557.500,4034.30463,N,11152.05683,W,1,11,1.20,0.00,M,1379.84,M,,*6C
$GNGLL,4034.30463,N,11152.05683,W,002557.500,A*37
$GNGSA,A,03,03,04,07,09,16,26,27,31,03,05,08,24,1.2,1.0,1.0*1A
$GNRMC,002557,A,4034.30463,N,11152.05683,W,000.0,000.0,230923,000.0,E*79
$GNZDA,002557.500,23,09,2023,00,00*43
$GNVTG,0.00,T,,M,0.00,N,0.00,K,A*23
$INTEL,KIM,2.0.0.6,519957500,2280,0,0.000,0.000,0,0.000,0.000,0.000,0.000,0.000,0.000*04
$GPGSV,4,1,13,03,38,189,22,04,79,024,45,07,27,260,27,09,55,314,45*76
$GPGSV,4,2,13,16,57,081,43,26,33,051,37,27,12,122,24,31,15,064,42*71
$GPGSV,4,3,13,515,38,189,39,516,79,024,49,521,55,314,53,538,33,051,49*7A
$GPGSV,4,4,13,539,12,122,32*77
$GAGSV,3,1,10,259,81,045,45,03,81,045,48,261,32,113,44,05,32,113,45*6A
$GAGSV,3,2,10,264,38,308,46,08,38,308,42,280,23,043,44,24,23,043,46*6A
$GAGSV,3,3,10,281,67,096,48,25,67,096,47*5A
$GNGGA,002558.000,4034.30465,N,11152.05683,W,1,11,1.20,0.00,M,1379.83,M,,*67
$GNGLL,4034.30465,N,11152.05683,W,002558.000,A*3B
$GNGSA,A,03,03,04,07,09,16,26,27,31,03,05,08,24,1.2,0.5,1.0*1E
$GNRMC,002558,A,4034.30465,N,11152.05683,W,000.0,000.0,230923,000.0,E*70
$GNZDA,002558.000,23,09,2023,00,00*49
$GNVTG,0.00,T,,M,0.00,N,0.00,K,A*23
$INTEL,KIM,2.0.0.6,519958000,2280,0,0.000,0.000,0,0.000,0.000,0.000,0.000,0.000,0.000*0E
$GPGSV,4,1,13,03,38,189,23,04,79,024,45,07,27,260,27,09,55,314,45*77
$GPGSV,4,2,13,16,57,081,43,26,33,051,37,27,12,122,24,31,15,064,42*71
$GPGSV,4,3,13,515,38,189,39,516,79,024,49,521,55,314,53,538,33,051,49*7A
$GPGSV,4,4,13,539,12,122,32*77
$GAGSV,3,1,10,259,81,045,45,03,81,045,48,261,32,113,44,05,32,113,45*6A
$GAGSV,3,2,10,264,38,308,46,08,38,308,42,280,23,043,44,24,23,043,45*69
$GAGSV,3,3,10,281,67,096,48,25,67,096,47*5A
$GNGGA,002558.500,4034.30466,N,11152.05683,W,1,11,1.20,0.00,M,1379.82,M,,*60
$GNGLL,4034.30466,N,11152.05683,W,002558.500,A*3D
$GNGSA,A,03,03,04,07,09,16,26,27,31,03,05,08,24,1.2,0.5,1.0*1E
$GNRMC,002558,A,4034.30466,N,11152.05683,W,000.0,000.0,230923,000.0,E*73
$GNZDA,002558.500,23,09,2023,00,00*4C
$GNVTG,0.00,T,,M,0.00,N,0.00,K,A*23
$INTEL,KIM,2.0.0.6,519958500,2280,0,0.000,0.000,0,0.000,0.000,0.000,0.000,0.000,0.000*0B
$GPGSV,4,1,13,03,38,189,23,04,79,024,45,07,27,260,27,09,55,314,45*77
$GPGSV,4,2,13,16,57,081,43,26,33,051,37,27,12,122,24,31,15,064,42*71
$GPGSV,4,3,13,515,38,189,39,516,79,024,49,521,55,314,53,538,33,051,49*7A
$GPGSV,4,4,13,539,12,122,32*77
$GAGSV,3,1,10,259,81,045,44,03,81,045,48,261,32,113,44,05,32,113,45*6B
$GAGSV,3,2,10,264,38,308,46,08,38,308,42,280,23,043,44,24,23,043,45*69
$GAGSV,3,3,10,281,67,096,48,25,67,096,47*5A
$GNGGA,002559.000,4034.30467,N,11152.05683,W,1,11,1.20,0.00,M,1379.81,M,,*66
$GNGLL,4034.30467,N,11152.05683,W,002559.000,A*38
$GNGSA,A,03,03,04,07,09,16,26,27,31,03,05,08,24,1.2,0.5,1.0*1E
$GNRMC,002559,A,4034.30467,N,11152.05683,W,000.0,000.0,230923,000.0,E*73
$GNZDA,002559.000,23,09,2023,00,00*48
$GNVTG,0.00,T,,M,0.00,N,0.00,K,A*23
$INTEL,KIM,2.0.0.6,519959000,2280,0,0.000,0.000,0,0.000,0.000,0.000,0.000,0.000,0.000*0F
$GPGSV,4,1,13,03,38,189,24,04,79,024,45,07,27,260,27,09,55,314,45*70
$GPGSV,4,2,13,16,57,081,43,26,33,051,37,27,12,122,24,31,15,064,42*71
$GPGSV,4,3,13,515,38,189,39,516,79,024,49,521,55,314,53,538,33,051,49*7A
$GPGSV,4,4,13,539,12,122,32*77
$GAGSV,3,1,10,259,81,045,45,03,81,045,48,261,32,113,44,05,32,113,45*6A
$GAGSV,3,2,10,264,38,308,46,08,38,308,42,280,23,043,44,24,23,043,45*69
$GAGSV,3,3,10,281,67,096,48,25,67,096,47*5A
$GNGGA,002559.500,4034.30468,N,11152.05683,W,1,11,1.20,0.00,M,1379.80,M,,*6D
$GNGLL,4034.30468,N,11152.05683,W,002559.500,A*32
$GNGSA,A,03,03,04,07,09,16,26,27,31,03,05,08,24,1.2,1.0,1.0*1A
$GNRMC,002559,A,4034.30468,N,11152.05683,W,000.0,000.0,230923,000.0,E*7C
$GNZDA,002559.500,23,09,2023,00,00*4D
$GNVTG,0.00,T,,M,0.00,N,0.00,K,A*23
$INTEL,KIM,2.0.0.6,519959500,2280,0,0.000,0.000,0,0.000,0.000,0.000,0.000,0.000,0.000*0A
$GPGSV,4,1,13,03,38,189,24,04,79,024,45,07,27,260,28,09,55,314,45*7F
$GPGSV,4,2,13,16,57,081,43,26,33,051,37,27,12,122,24,31,15,064,42*71
$GPGSV,4,3,13,515,38,189,39,516,79,024,49,521,55,314,53,538,33,051,49*7A
$GPGSV,4,4,13,539,12,122,32*77
$GAGSV,3,1,10,259,81,045,45,03,81,045,48,261,32,113,44,05,32,113,45*6A
$GAGSV,3,2,10,264,38,308,46,08,38,308,42,280,23,043,44,24,23,043,46*6A
$GAGSV,3,3,10,281,67,096,48,25,67,096,47*5A
$GNGGA,002600.000,4034.30469,N,11152.05683,W,1,11,1.20,0.00,M,1379.79,M,,*60
$GNGLL,4034.30469,N,11152.05683,W,002600.000,A*39
$GNGSA,A,03,03,04,07,09,16,26,27,31,03,05,08,24,1.2,1.0,1.0*1A
$GNRMC,002600,A,4034.30469,N,11152.05683,W,000.0,000.0,230923,000.0,E*72
$GNZDA,002600.000,23,09,2023,00,00*47
$GNVTG,0.00,T,,M,0.00,N,0.00,K,A*23
$INTEL,KIM,2.0.0.6,519960000,2280,0,0.000,0.000,0,0.000,0.000,0.000,0.000,0.000,0.000*05
$GPGSV,4,1,13,03,38,189,24,04,79,024,45,07,27,260,29,09,55,314,45*7E
$GPGSV,4,2,13,16,57,081,43,26,33,051,37,27,12,122,23,31,15,064,42*76
$GPGSV,4,3,13,515,38,189,39,516,79,024,49,521,55,314,53,538,33,051,49*7A
$GPGSV,4,4,13,539,12,122,32*77
$GAGSV,3,1,10,259,81,045,45,03,81,045,48,261,32,113,44,05,32,113,45*6A
$GAGSV,3,2,10,264,38,308,46,08,38,308,42,280,23,043,44,24,23,043,45*69
$GAGSV,3,3,10,281,67,096,48,25,67,096,47*5A
$GNGGA,002600.500,4034.30471,N,11152.05683,W,1,11,1.20,0.00,M,1379.78,M,,*6D
$GNGLL,4034.30471,N,11152.05683,W,002600.500,A*35
$GNGSA,A,03,03,04,07,09,16,26,27,31,03,05,08,24,1.2,1.0,1.0*1A
$GNRMC,002600,A,4034.30471,N,11152.05683,W,000.0,000.0,230923,000.0,E*7B
$GNZDA,002600.500,23,09,2023,00,00*42
$GNVTG,0.00,T,,M,0.00,N,0.00,K,A*23
$INTEL,KIM,2.0.0.6,519960500,2280,0,0.000,0.000,0,0.000,0.000,0.000,0.000,0.000,0.000*00
$GPGSV,4,1,13,03,38,189,24,04,79,024,45,07,27,260,29,09,55,314,45*7E
$GPGSV,4,2,13,16,57,081,43,26,33,051,37,27,12,122,24,31,15,064,42*71
$GPGSV,4,3,13,515,38,189,39,516,79,024,49,521,55,314,53,538,33,051,49*7A
$GPGSV,4,4,13,539,12,122,32*77
$GAGSV,3,1,10,259,81,045,45,03,81,045,48,261,32,113,44,05,32,113,45*6A
$GAGSV,3,2,10,264,38,308,46,08,38,308,42,280,23,043,44,24,23,043,45*69
$GAGSV,3,3,10,281,67,096,48,25,67,096,47*5A
$GNGGA,002601.000,4034.30472,N,11152.05683,W,1,11,1.20,0.00,M,1379.77,M,,*65
$GNGLL,4034.30472,N,11152.05683,W,002601.000,A*32
$GNGSA,A,03,03,04,07,09,16,26,27,31,03,05,08,24,1.2,1.0,1.0*1A
$GNRMC,002601,A,4034.30472,N,11152.05683,W,000.0,000.0,230923,000.0,E*79
$GNZDA,002601.000,23,09,2023,00,00*46
$GNVTG,0.00,T,,M,0.00,N,0.00,K,A*23
$INTEL,KIM,2.0.0.6,519961000,2280,0,0.000,0.000,0,0.000,0.000,0.000,0.000,0.000,0.000*04
$GPGSV,4,1,13,03,38,189,24,04,79,024,45,07,27,260,28,09,55,314,45*7F
$GPGSV,4,2,13,16,57,081,43,26,33,051,37,27,12,122,24,31,15,064,42*71
$GPGSV,4,3,13,515,38,189,39,516,79,024,49,521,55,314,53,538,33,051,49*7A
$GPGSV,4,4,13,539,12,122,32*77
$GAGSV,3,1,10,259,81,046,45,03,81,046,48,261,32,113,44,05,32,113,45*6A
$GAGSV,3,2,10,264,38,308,46,08,38,308,42,280,23,043,44,24,23,043,45*69
$GAGSV,3,3,10,281,67,096,48,25,67,096,47*5A
$GNGGA,002601.500,4034.30474,N,11152.05683,W,1,11,1.20,0.00,M,1379.76,M,,*67
$GNGLL,4034.30474,N,11152.05683,W,002601.500,A*31
$GNGSA,A,03,03,04,07,09,16,26,27,31,03,05,08,24,1.2,1.0,1.0*1A
$GNRMC,002601,A,4034.30474,N,11152.05683,W,000.0,000.0,230923,000.0,E*7F
$GNZDA,002601.500,23,09,2023,00,00*43
$GNVTG,0.00,T,,M,0.00,N,0.00,K,A*23
$INTEL,KIM,2.0.0.6,519961500,2280,0,0.000,0.000,0,0.000,0.000,0.000,0.000,0.000,0.000*01
$GPGSV,4,1,13,03,38,189,24,04,79,024,45,07,27,260,29,09,55,314,45*7E
$GPGSV,4,2,13,16,57,081,43,26,33,051,37,27,12,122,23,31,15,064,42*76
$GPGSV,4,3,13,515,38,189,39,516,79,024,49,521,55,314,53,538,33,051,49*7A
$GPGSV,4,4,13,539,12,122,32*77
$GAGSV,3,1,10,259,81,046,45,03,81,046,48,261,32,113,44,05,32,113,45*6A
$GAGSV,3,2,10,264,38,308,46,08,38,308,42,280,23,043,44,24,23,043,45*69
$GAGSV,3,3,10,281,67,096,48,25,67,096,47*5A
$GNGGA,002602.000,4034.30475,N,11152.05683,W,1,11,1.20,0.00,M,1379.75,M,,*63
$GNGLL,4034.30475,N,11152.05683,W,002602.000,A*36
$GNGSA,A,03,03,04,07,09,16,26,27,31,03,05,08,24,1.2,1.0,1.0*1A
$GNRMC,002602,A,4034.30475,N,11152.05683,W,000.0,000.0,230923,000.0,E*7D
$GNZDA,002602.000,23,09,2023,00,00*45
$GNVTG,0.00,T,,M,0.00,N,0.00,K,A*23
$INTEL,KIM,2.0.0.6,519962000,2280,0,0.000,0.000,0,0.000,0.000,0.000,0.000,0.000,0.000*07
$GPGSV,4,1,13,03,38,189,24,04,79,024,45,07,27,260,29,09,55,314,45*7E
$GPGSV,4,2,13,16,57,081,43,26,33,051,37,27,12,122,23,31,15,064,42*76
$GPGSV,4,3,13,515,38,189,39,516,79,024,49,521,55,314,53,538,33,051,49*7A
$GPGSV,4,4,13,539,12,122,33*76
$GAGSV,3,1,10,259,81,046,45,03,81,046,48,261,32,113,44,05,32,113,45*6A
$GAGSV,3,2,10,264,38,308,46,08,38,308,42,280,23,043,44,24,23,043,45*69
$GAGSV,3,3,10,281,67,096,48,25,67,096,47*5A
$GNGGA,002602.500,4034.30476,N,11152.05683,W,1,11,1.20,0.00,M,1379.74,M,,*64
$GNGLL,4034.30476,N,11152.05683,W,002602.500,A*30
$GNGSA,A,03,03,04,07,09,16,26,27,31,03,05,08,24,1.2,1.0,1.0*1A
$GNRMC,002602,A,4034.30476,N,11152.05683,W,000.0,000.0,230923,000.0,E*7E
$GNZDA,002602.500,23,09,2023,00,00*40
$GNVTG,0.00,T,,M,0.00,N,0.00,K,A*23
$INTEL,KIM,2.0.0.6,519962500,2280,0,0.000,0.000,0,0.000,0.000,0.000,0.000,0.000,0.000*02
$GPGSV,4,1,13,03,38,189,25,04,79,024,45,07,27,260,29,09,55,314,45*7F
$GPGSV,4,2,13,16,57,081,43,26,33,051,37,27,12,122,23,31,15,064,42*76
$GPGSV,4,3,13,515,38,189,39,516,79,024,49,521,55,314,53,538,33,051,49*7A
$GPGSV,4,4,13,539,12,122,33*76
$GAGSV,3,1,10,259,81,046,45,03,81,046,48,261,32,113,44,05,32,113,45*6A
$GAGSV,3,2,10,264,38,308,46,08,38,308,42,280,23,043,43,24,23,043,45*6E
$GAGSV,3,3,10,281,67,096,48,25,67,096,47*5A
$GNGGA,002603.000,4034.30478,N,11152.05683,W,1,11,1.20,0.00,M,1379.73,M,,*69
$GNGLL,4034.30478,N,11152.05683,W,002603.000,A*3A
$GNGSA,A,03,03,04,07,09,16,26,27,31,03,05,08,24,1.2,1.0,1.0*1A
$GNRMC,002603,A,4034.30478,N,11152.05683,W,000.0,000.0,230923,000.0,E*71
$GNZDA,002603.000,23,09,2023,00,00*44
$GNVTG,0.00,T,,M,0.00,N,0.00,K,A*23
$INTEL,KIM,2.0.0.6,519963000,2280,0,0.000,0.000,0,0.000,0.000,0.000,0.000,0.000,0.000*06
$GPGSV,4,1,13,03,38,189,25,04,79,024,45,07,27,260,29,09,55,314,45*7F
$GPGSV,4,2,13,16,57,081,43,26,33,051,37,27,12,122,22,31,15,064,42*77
$GPGSV,4,3,13,515,38,189,39,516,79,024,49,521,55,314,53,538,33,051,49*7A
$GPGSV,4,4,13,539,12,122,33*76
$GAGSV,3,1,10,259,81,046,45,03,81,046,48,261,32,113,44,05,32,113,45*6A
$GAGSV,3,2,10,264,38,308,46,08,38,308,42,280,23,043,43,24,23,043,45*6E
$GAGSV,3,3,10,281,67,096,48,25,67,096,47*5A
$GNGGA,002603.500,4034.30479,N,11152.05683,W,1,11,1.20,0.00,M,1379.72,M,,*6C
$GNGLL,4034.30479,N,11152.05683,W,002603.500,A*3E
$GNGSA,A,03,03,04,07,09,16,26,27,31,03,05,08,24,1.2,1.0,1.0*1A
$GNRMC,002603,A,4034.30479,N,11152.05683,W,000.0,000.0,230923,000.0,E*70
$GNZDA,002603.500,23,09,2023,00,00*41
$GNVTG,0.00,T,,M,0.00,N,0.00,K,A*23
$INTEL,KIM,2.0.0.6,519963500,2280,0,0.000,0.000,0,0.000,0.000,0.000,0.000,0.000,0.000*03
$GPGSV,4,1,13,03,38,189,25,04,79,024,45,07,27,260,29,09,55,314,45*7F
$GPGSV,4,2,13,16,57,081,43,26,33,051,37,27,12,122,21,31,15,064,42*74
$GPGSV,4,3,13,515,38,189,39,516,79,024,49,521,55,314,53,538,33,051,49*7A
$GPGSV,4,4,13,539,12,122,33*76
$GAGSV,3,1,10,259,81,046,45,03,81,046,48,261,32,113,44,05,32,113,45*6A
$GAGSV,3,2,10,264,38,308,46,08,38,308,42,280,23,043,43,24,23,043,45*6E
$GAGSV,3,3,10,281,67,096,48,25,67,096,47*5A
$GNGGA,002604.000,4034.30480,N,11152.05682,W,1,11,1.20,0.00,M,1379.72,M,,*69
$GNGLL,4034.30480,N,11152.05682,W,002604.000,A*3B
$GNGSA,A,03,03,04,07,09,16,26,27,31,03,05,08,24,1.2,1.0,1.0*1A
$GNRMC,002604,A,4034.30480,N,11152.05682,W,000.0,000.0,230923,000.0,E*70
$GNZDA,002604.000,23,09,2023,00,00*43
$GNVTG,0.00,T,,M,0.00,N,0.00,K,A*23
$INTEL,KIM,2.0.0.6,519964000,2280,0,0.000,0.000,0,0.000,0.000,0.000,0.000,0.000,0.000*01
$GPGSV,4,1,13,03,38,189,25,04,79,024,45,07,27,260,29,09,55,314,45*7F
$GPGSV,4,2,13,16,57,081,43,26,33,051,37,27,12,122,20,31,15,064,42*75
$GPGSV,4,3,13,515,38,189,39,516,79,024,49,521,55,314,53,538,33,051,49*7A
$GPGSV,4,4,13,539,12,122,33*76
$GAGSV,3,1,10,259,81,046,45,03,81,046,48,261,32,113,44,05,32,113,45*6A
$GAGSV,3,2,10,264,38,308,46,08,38,308,42,280,23,043,44,24,23,043,45*69
$GAGSV,3,3,10,281,67,096,48,25,67,096,47*5A
$GNGGA,002604.500,4034.30481,N,11152.05682,W,1,11,1.20,0.00,M,1379.71,M,,*6E
$GNGLL,4034.30481,N,11152.05682,W,002604.500,A*3F
$GNGSA,A,03,03,04,07,09,16,26,27,31,03,05,08,24,1.2,1.0,1.0*1A
$GNRMC,002604,A,4034.30481,N,11152.05682,W,000.0,000.0,230923,000.0,E*71
$GNZDA,002604.500,23,09,2023,00,00*46
$GNVTG,0.00,T,,M,0.00,N,0.00,K,A*23
$INTEL,KIM,2.0.0.6,519964500,2280,0,0.000,0.000,0,0.000,0.000,0.000,0.000,0.000,0.000*04
$GPGSV,4,1,13,03,38,189,24,04,79,024,45,07,27,260,29,09,55,314,45*7E
$GPGSV,4,2,13,16,57,081,43,26,33,051,37,27,12,122,21,31,15,064,42*74
$GPGSV,4,3,13,515,38,189,39,516,79,024,49,521,55,314,53,538,33,051,49*7A
$GPGSV,4,4,13,539,12,122,33*76
$GAGSV,3,1,10,259,81,046,45,03,81,046,48,261,32,113,44,05,32,113,45*6A
$GAGSV,3,2,10,264,38,308,46,08,38,308,42,280,23,043,43,24,23,043,45*6E
$GAGSV,3,3,10,281,67,096,48,25,67,096,47*5A
$GNGGA,002605.000,4034.30483,N,11152.05682,W,1,11,1.20,0.00,M,1379.70,M,,*69
$GNGLL,4034.30483,N,11152.05682,W,002605.000,A*39
$GNGSA,A,03,03,04,07,09,16,26,27,31,03,05,08,24,1.2,1.0,1.0*1A
$GNRMC,002605,A,4034.30483,N,11152.05682,W,000.0,000.0,230923,000.0,E*72
$GNZDA,002605.000,23,09,2023,00,00*42
$GNVTG,0.00,T,,M,0.00,N,0.00,K,A*23
$INTEL,KIM,2.0.0.6,519965000,2280,0,0.000,0.000,0,0.000,0.000,0.000,0.000,0.000,0.000*00
$GPGSV,4,1,13,03,38,189,25,04,79,024,45,07,27,260,29,09,55,314,45*7F
$GPGSV,4,2,13,16,57,081,43,26,33,051,37,27,12,122,20,31,15,064,42*75
$GPGSV,4,3,13,515,38,189,39,516,79,024,49,521,55,314,53,538,33,051,49*7A
$GPGSV,4,4,13,539,12,122,33*76
$GAGSV,3,1,10,259,81,046,45,03,81,046,48,261,32,113,44,05,32,113,45*6A
$GAGSV,3,2,10,264,38,308,46,08,38,308,42,280,23,043,43,24,23,043,45*6E
$GAGSV,3,3,10,281,67,096,48,25,67,096,47*5A
$GNGGA,002605.500,4034.30483,N,11152.05682,W,1,11,1.20,0.00,M,1379.69,M,,*64
$GNGLL,4034.30483,N,11152.05682,W,002605.500,A*3C
$GNGSA,A,03,03,04,07,09,16,26,27,31,03,05,08,24,1.2,1.0,1.0*1A
$GNRMC,002605,A,4034.30483,N,11152.05682,W,000.0,000.0,230923,000.0,E*72
$GNZDA,002605.500,23,09,2023,00,00*47
$GNVTG,0.00,T,,M,0.00,N,0.00,K,A*23
$INTEL,KIM,2.0.0.6,519965500,2280,0,0.000,0.000,0,0.000,0.000,0.000,0.000,0.000,0.000*05
$GPGSV,4,1,13,03,38,189,24,04,79,024,45,07,27,260,30,09,55,314,45*76
$GPGSV,4,2,13,16,57,081,43,26,33,051,37,27,12,122,20,31,15,064,42*75
$GPGSV,4,3,13,515,38,189,39,516,79,024,49,521,55,314,53,538,33,051,49*7A
$GPGSV,4,4,13,539,12,122,33*76
$GAGSV,3,1,10,259,81,046,45,03,81,046,48,261,32,113,44,05,32,113,45*6A
$GAGSV,3,2,10,264,38,308,46,08,38,308,42,280,23,043,43,24,23,043,45*6E
$GAGSV,3,3,10,281,67,096,48,25,67,096,47*5A
$GNGGA,002606.000,4034.30484,N,11152.05682,W,1,11,1.20,0.00,M,1379.68,M,,*64
$GNGLL,4034.30484,N,11152.05682,W,002606.000,A*3D
$GNGSA,A,03,03,04,07,09,16,26,27,31,03,05,08,24,1.2,1.0,1.0*1A
$GNRMC,002606,A,4034.30484,N,11152.05682,W,000.0,000.0,230923,000.0,E*76
$GNZDA,002606.000,23,09,2023,00,00*41
$GNVTG,0.00,T,,M,0.00,N,0.00,K,A*23
$INTEL,KIM,2.0.0.6,519966000,2280,0,0.000,0.000,0,0.000,0.000,0.000,0.000,0.000,0.000*03
$GPGSV,4,1,13,03,38,189,24,04,79,024,45,07,27,260,29,09,55,314,45*7E
$GPGSV,4,2,13,16,57,081,43,26,33,051,37,27,12,122,20,31,15,064,42*75
$GPGSV,4,3,13,515,38,189,39,516,79,024,49,521,55,314,53,538,33,051,49*7A
$GPGSV,4,4,13,539,12,122,33*76
$GAGSV,3,1,10,259,81,046,45,03,81,046,48,261,32,113,44,05,32,113,45*6A
$GAGSV,3,2,10,264,38,308,46,08,38,308,42,280,23,043,43,24,23,043,45*6E
$GAGSV,3,3,10,281,67,096,48,25,67,096,47*5A
$GNGGA,002606.500,4034.30485,N,11152.05682,W,1,11,1.20,0.00,M,1379.67,M,,*6F
$GNGLL,4034.30485,N,11152.05682,W,002606.500,A*39
$GNGSA,A,03,03,04,07,09,16,26,27,31,03,05,08,24,1.2,1.0,1.0*1A
$GNRMC,002606,A,4034.30485,N,11152.05682,W,000.0,000.0,230923,000.0,E*77
$GNZDA,002606.500,23,09,2023,00,00*44
$GNVTG,0.00,T,,M,0.00,N,0.00,K,A*23
$INTEL,KIM,2.0.0.6,519966500,2280,0,0.000,0.000,0,0.000,0.000,0.000,0.000,0.000,0.000*06
$GPGSV,4,1,13,03,38,189,24,04,79,024,45,07,27,260,30,09,55,314,45*76
$GPGSV,4,2,13,16,57,081,43,26,33,051,37,27,12,122,20,31,15,064,42*75
$GPGSV,4,3,13,515,38,189,38,516,79,024,49,521,55,314,53,538,33,051,49*7B
$GPGSV,4,4,13,539,12,122,34*71
$GAGSV,3,1,10,259,81,046,45,03,81,046,46,261,32,113,44,05,32,113,44*65
$GAGSV,3,2,10,264,38,308,46,08,38,308,41,280,23,043,43,24,23,043,44*6C
$GAGSV,3,3,10,281,67,096,48,25,67,096,46*5B
$GNGGA,002607.000,4034.30486,N,11152.05682,W,1,11,1.20,0.00,M,1379.66,M,,*69
$GNGLL,4034.30486,N,11152.05682,W,002607.000,A*3E
$GNGSA,A,03,03,04,07,09,16,26,27,31,03,05,08,24,1.2,1.0,1.0*1A
$GNRMC,002607,A,4034.30486,N,11152.05682,W,000.0,000.0,230923,000.0,E*75
$GNZDA,002607.000,23,09,2023,00,00*40
$GNVTG,0.00,T,,M,0.00,N,0.00,K,A*23
$INTEL,KIM,2.0.0.6,519967000,2280,0,0.000,0.000,0,0.000,0.000,0.000,0.000,0.000,0.000*02
$GPGSV,4,1,13,03,38,189,23,04,79,024,45,07,27,260,30,09,55,314,45*71
$GPGSV,4,2,13,16,57,081,43,26,33,051,38,27,12,122,19,31,15,064,42*70
$GPGSV,4,3,13,515,38,189,38,516,79,024,49,521,55,314,53,538,33,051,49*7B
$GPGSV,4,4,13,539,12,122,33*76
$GAGSV,3,1,10,259,81,046,45,03,81,046,48,261,32,113,44,05,32,113,45*6A
$GAGSV,3,2,10,264,38,308,46,08,38,308,42,280,23,043,43,24,23,043,45*6E
$GAGSV,3,3,10,281,67,096,48,25,67,096,47*5A
$GNGGA,002607.500,4034.30487,N,11152.05682,W,1,11,1.20,0.00,M,1379.65,M,,*6E
$GNGLL,4034.30487,N,11152.05682,W,002607.500,A*3A
$GNGSA,A,03,03,04,07,09,16,26,27,31,03,05,08,24,1.2,1.0,1.0*1A
$GNRMC,002607,A,4034.30487,N,11152.05682,W,000.0,000.0,230923,000.0,E*74
$GNZDA,002607.500,23,09,2023,00,00*45
$GNVTG,0.00,T,,M,0.00,N,0.00,K,A*23
$INTEL,KIM,2.0.0.6,519967500,2280,0,0.000,0.000,0,0.000,0.000,0.000,0.000,0.000,0.000*07
$GPGSV,4,1,13,03,38,189,24,04,79,024,45,07,27,260,30,09,55,314,45*76
$GPGSV,4,2,13,16,57,081,43,26,33,051,38,27,12,122,20,31,15,064,42*7A
$GPGSV,4,3,13,515,38,189,38,516,79,024,49,521,55,314,53,538,33,051,49*7B
$GPGSV,4,4,13,539,12,122,33*76
$GAGSV,3,1,10,259,81,046,44,03,81,046,47,261,32,113,44,05,32,113,45*64
$GAGSV,3,2,10,264,38,308,46,08,38,308,41,280,23,043,43,24,23,043,45*6D
$GAGSV,3,3,10,281,67,096,48,25,67,096,46*5B
$GNGGA,002608.000,4034.30488,N,11152.05681,W,1,11,1.20,0.00,M,1379.64,M,,*69
$GNGLL,4034.30488,N,11152.05681,W,002608.000,A*3C
$GNGSA,A,03,03,04,07,09,16,26,27,31,03,05,08,24,1.2,1.0,1.0*1A
$GNRMC,002608,A,4034.30488,N,11152.05681,W,000.0,000.0,230923,000.0,E*77
$GNZDA,002608.000,23,09,2023,00,00*4F
$GNVTG,0.00,T,,M,0.00,N,0.00,K,A*23
$INTEL,KIM,2.0.0.6,519968000,2280,0,0.000,0.000,0,0.000,0.000,0.000,0.000,0.000,0.000*0D
$GPGSV,4,1,13,03,38,189,23,04,79,024,45,07,27,260,29,09,55,314,45*79
$GPGSV,4,2,13,16,57,081,43,26,33,051,38,27,12,122,21,31,15,064,42*7B
$GPGSV,4,3,13,515,38,189,39,516,79,024,49,521,55,314,53,538,33,051,49*7A
$GPGSV,4,4,13,539,12,122,34*71
$GAGSV,3,1,10,259,81,046,45,03,81,046,48,261,32,113,44,05,32,113,45*6A
$GAGSV,3,2,10,264,38,308,46,08,38,308,42,280,23,043,43,24,23,043,45*6E
$GAGSV,3,3,10,281,67,096,48,25,67,096,47*5A
$GNGGA,002608.500,4034.30489,N,11152.05681,W,1,11,1.20,0.00,M,1379.63,M,,*6A
$GNGLL,4034.30489,N,11152.05681,W,002608.500,A*38
$GNGSA,A,03,03,04,07,09,16,26,27,31,03,05,08,24,1.2,1.0,1.0*1A
$GNRMC,002608,A,4034.30489,N,11152.05681,W,000.0,000.0,230923,000.0,E*76
$GNZDA,002608.500,23,09,2023,00,00*4A
$GNVTG,0.00,T,,M,0.00,N,0.00,K,A*23
$INTEL,KIM,2.0.0.6,519968500,2280,0,0.000,0.000,0,0.000,0.000,0.000,0.000,0.000,0.000*08
$GPGSV,4,1,13,03,38,189,23,04,79,024,45,07,27,260,29,09,55,314,45*79
$GPGSV,4,2,13,16,57,081,43,26,33,051,37,27,12,122,21,31,15,064,42*74
$GPGSV,4,3,13,515,38,189,39,516,79,024,49,521,55,314,53,538,33,051,49*7A
$GPGSV,4,4,13,539,12,122,34*71
$GAGSV,3,1,10,259,81,046,45,03,81,046,47,261,32,113,44,05,32,113,44*64
$GAGSV,3,2,10,264,38,308,46,08,38,308,41,280,23,043,43,24,23,043,44*6C
$GAGSV,3,3,10,281,67,096,48,25,67,096,46*5B
$GNGGA,002609.000,4034.30489,N,11152.05680,W,1,11,1.20,0.00,M,1379.62,M,,*6E
$GNGLL,4034.30489,N,11152.05680,W,002609.000,A*3D
$GNGSA,A,03,03,04,07,09,16,26,27,31,03,05,08,24,1.2,1.0,1.0*1A
$GNRMC,002609,A,4034.30489,N,11152.05680,W,000.0,000.0,230923,000.0,E*76
$GNZDA,002609.000,23,09,2023,00,00*4E
$GNVTG,0.00,T,,M,0.00,N,0.00,K,A*23
$INTEL,KIM,2.0.0.6,519969000,2280,0,0.000,0.000,0,0.000,0.000,0.000,0.000,0.000,0.000*0C
$GPGSV,4,1,13,03,38,189,22,04,79,024,45,07,27,260,30,09,55,314,45*70
$GPGSV,4,2,13,16,57,081,43,26,33,051,37,27,12,122,22,31,15,064,42*77
$GPGSV,4,3,13,515,38,189,38,516,79,024,49,521,55,314,53,538,33,051,49*7B
$GPGSV,4,4,13,539,12,122,34*71
$GAGSV,3,1,10,259,81,046,45,03,81,046,48,261,32,113,44,05,32,113,45*6A
$GAGSV,3,2,10,264,38,308,46,08,38,308,42,280,23,043,43,24,23,043,45*6E
$GAGSV,3,3,10,281,67,096,48,25,67,096,47*5A
$GNGGA,002609.500,4034.30490,N,11152.05680,W,1,11,1.20,0.00,M,1379.61,M,,*60
$GNGLL,4034.30490,N,11152.05680,W,002609.500,A*30
$GNGSA,A,03,03,04,07,09,16,26,27,31,03,05,08,24,1.2,1.0,1.0*1A
$GNRMC,002609,A,4034.30490,N,11152.05680,W,000.0,000.0,230923,000.0,E*7E
$GNZDA,002609.500,23,09,2023,00,00*4B
$GNVTG,0.00,T,,M,0.00,N,0.00,K,A*23
$INTEL,KIM,2.0.0.6,519969500,2280,0,0.000,0.000,0,0.000,0.000,0.000,0.000,0.000,0.000*09
$GPGSV,4,1,13,03,38,189,23,04,79,024,45,07,27,260,30,09,55,314,45*71
$GPGSV,4,2,13,16,57,081,43,26,33,051,37,27,12,122,22,31,15,064,42*77
$GPGSV,4,3,13,515,38,189,38,516,79,024,49,521,55,314,53,538,33,051,49*7B
$GPGSV,4,4,13,539,12,122,34*71
$GAGSV,3,1,10,259,81,046,45,03,81,046,48,261,32,113,44,05,32,113,45*6A
$GAGSV,3,2,10,264,38,308,46,08,38,308,42,280,23,043,43,24,23,043,45*6E
$GAGSV,3,3,10,281,67,096,48,25,67,096,47*5A
$GNGGA,002610.000,4034.30491,N,11152.05680,W,1,11,1.20,0.00,M,1379.60,M,,*6D
$GNGLL,4034.30491,N,11152.05680,W,002610.000,A*3C
$GNGSA,A,03,03,04,07,09,16,26,27,31,03,05,08,24,1.2,1.0,1.0*1A
$GNRMC,002610,A,4034.30491,N,11152.05680,W,000.0,000.0,230923,000.0,E*77
$GNZDA,002610.000,23,09,2023,00,00*46
$GNVTG,0.00,T,,M,0.00,N,0.00,K,A*23
$INTEL,KIM,2.0.0.6,519970000,2280,0,0.000,0.000,0,0.000,0.000,0.000,0.000,0.000,0.000*04
$GPGSV,4,1,13,03,38,189,23,04,79,024,45,07,27,260,30,09,55,314,45*71
$GPGSV,4,2,13,16,57,081,43,26,33,051,37,27,12,122,22,31,15,064,42*77
$GPGSV,4,3,13,515,38,189,38,516,79,024,49,521,55,314,53,538,33,051,49*7B
$GPGSV,4,4,13,539,12,122,34*71
