[20241116 13:16:36.778] Realtime tests started...
[20241116 13:16:36.786] Realtime tests started...
[20241116 13:16:36.793] NMEA Error: NMEA GGA Error: Duplicate time (#1): 593812000 ms 0 week >> 593812000 ms 0 week
[20241116 13:16:36.793]   1: $GNGGA,205652.000,4017.81937,N,11145.56183,W,0,51,0.97,0.97,M,1407.56,M,,*6D
[20241116 13:16:36.793]   2: $GNGGA,205652.000,4017.81937,N,11145.56183,W,0,51,0.97,0.97,M,1407.56,M,,*6D
[20241116 13:16:36.793] NMEA Error: ISB GpsPos1 Error: Duplicate time (#2): 593831000 ms 2340 week >> 593831000 ms 2340 week
[20241116 13:16:36.793] NMEA Error: NMEA ZDA Error: Duplicate time (#1): 593831400 ms 2340 week >> 593831400 ms 2340 week
[20241116 13:16:36.793]   1: $GNZDA,205653.400,16,11,2024,00,00*48
[20241116 13:16:36.793]   2: $GNZDA,205653.400,16,11,2024,00,00*48
[20241116 13:16:36.793] NMEA Error: NMEA GGA Error: Duplicate time (#3): 593816600 ms 0 week >> 593816600 ms 0 week
[20241116 13:16:36.793]   1: $GNGGA,205656.600,4018.11043,N,11145.27077,W,0,101,0.16,0.16,M,1408.38,M,,*5C
[20241116 13:16:36.793]   2: $GNGGA,205656.600,4018.11043,N,11145.27077,W,0,101,0.16,0.16,M,1408.38,M,,*5C
[20241116 13:16:36.793] NMEA Error: ISB GpsPos1 Error: Duplicate time (#4): 593835600 ms 2340 week >> 593835600 ms 2340 week
[20241116 13:16:36.793] NMEA Error: NMEA ZDA Error: Duplicate time (#2): 593836000 ms 2340 week >> 593836000 ms 2340 week
[20241116 13:16:36.793]   1: $GNZDA,205658.000,16,11,2024,00,00*47
[20241116 13:16:36.793]   2: $GNZDA,205658.000,16,11,2024,00,00*47
[20241116 13:16:36.794] NMEA Error: NMEA GGA Error: Duplicate time (#5): 593821200 ms 0 week >> 593821200 ms 0 week
[20241116 13:16:36.794]   1: $GNGGA,205701.200,4017.73351,N,11145.64769,W,0,113,0.91,0.91,M,1407.62,M,,*5C
[20241116 13:16:36.794]   2: $GNGGA,205701.200,4017.73351,N,11145.64769,W,0,113,0.91,0.91,M,1407.62,M,,*5C
[20241116 13:16:36.794] NMEA Error: ISB GpsPos1 Error: Duplicate time (#6): 593840200 ms 2340 week >> 593840200 ms 2340 week
[20241116 13:16:36.794] NMEA Error: NMEA ZDA Error: Duplicate time (#3): 593840600 ms 2340 week >> 593840600 ms 2340 week
[20241116 13:16:36.794]   1: $GNZDA,205702.600,16,11,2024,00,00*4F
[20241116 13:16:36.794]   2: $GNZDA,205702.600,16,11,2024,00,00*4F
[20241116 13:16:36.794] NMEA Error: NMEA GGA Error: Duplicate time (#7): 593825800 ms 0 week >> 593825800 ms 0 week
[20241116 13:16:36.794]   1: $GNGGA,205705.800,4017.83635,N,11145.54485,W,0,154,0.61,0.61,M,1407.92,M,,*54
[20241116 13:16:36.794]   2: $GNGGA,205705.800,4017.83635,N,11145.54485,W,0,154,0.61,0.61,M,1407.92,M,,*54
[20241116 13:16:36.794] NMEA Error: ISB GpsPos1 Error: Duplicate time (#8): 593844800 ms 2340 week >> 593844800 ms 2340 week
[20241116 13:16:36.794] NMEA Error: NMEA ZDA Error: Duplicate time (#4): 593845200 ms 2340 week >> 593845200 ms 2340 week
[20241116 13:16:36.794]   1: $GNZDA,205707.200,16,11,2024,00,00*4E
[20241116 13:16:36.794]   2: $GNZDA,205707.200,16,11,2024,00,00*4E
[20241116 13:16:36.794] Realtime tests started...
[20241116 13:16:36.802] NMEA Error: ISB GpsPos1 Error: Duplicate time (#1): 593847200 ms 2340 week >> 593847200 ms 2340 week
[20241116 13:16:36.802] NMEA Error: NMEA ZDA Error: Duplicate time (#1): 593847200 ms 2340 week >> 593847200 ms 2340 week
[20241116 13:16:36.802]   1: $GNZDA,205709.200,16,11,2024,00,00*40
[20241116 13:16:36.802]   2: $GNZDA,205709.200,16,11,2024,00,00*40
[20241116 13:16:36.802] NMEA Error: NMEA GGA Error: Duplicate time (#2): 593829200 ms 0 week >> 593829200 ms 0 week
[20241116 13:16:36.802]   1: $GNGGA,205709.200,4017.83245,N,11145.54875,W,1,48,0.56,0.56,M,1407.97,M,,*6A
[20241116 13:16:36.802]   2: $GNGGA,205709.200,4017.83443,N,11145.54677,W,0,33,0.03,0.03,M,1408.50,M,,*6F
[20241116 13:16:36.802] NMEA Error: ISB GpsPos1 Error: Reversed time (#3): 593847400 ms 2340 week >> 593847200 ms 2340 week
[20241116 13:16:36.802] NMEA Error: NMEA ZDA Error: Reversed time (#2): 593847400 ms 2340 week >> 593847200 ms 2340 week
[20241116 13:16:36.802]   1: $GNZDA,205709.400,16,11,2024,00,00*46
[20241116 13:16:36.802]   2: $GNZDA,205709.200,16,11,2024,00,00*40
[20241116 13:16:36.802] NMEA Error: NMEA GGA Error: Reversed time (#4): 593829400 ms 0 week >> 593829200 ms 0 week
[20241116 13:16:36.802]   1: $GNGGA,205709.400,4017.88459,N,11145.49661,W,1,68,0.84,0.84,M,1407.70,M,,*60
[20241116 13:16:36.802]   2: $GNGGA,205709.200,4017.93043,N,11145.45077,W,1,252,0.76,0.76,M,1407.77,M,,*52
[20241116 13:16:36.802] NMEA Error: ISB GpsPos1 Error: Reversed time (#5): 593847400 ms 2340 week >> 593847200 ms 2340 week
[20241116 13:16:36.802] NMEA Error: NMEA ZDA Error: Reversed time (#3): 593847400 ms 2340 week >> 593847200 ms 2340 week
[20241116 13:16:36.802]   1: $GNZDA,205709.400,16,11,2024,00,00*46
[20241116 13:16:36.802]   2: $GNZDA,205709.200,16,11,2024,00,00*40
[20241116 13:16:36.802] NMEA Error: NMEA GGA Error: Reversed time (#6): 593829400 ms 0 week >> 593829200 ms 0 week
[20241116 13:16:36.802]   1: $GNGGA,205709.400,4017.90001,N,11145.48119,W,0,05,0.51,0.51,M,1408.03,M,,*68
[20241116 13:16:36.802]   2: $GNGGA,205709.200,4017.84319,N,11145.53801,W,0,77,0.95,0.95,M,1407.59,M,,*6E
[20241116 13:16:36.802] NMEA Error: ISB GpsPos1 Error: Reversed time (#7): 593847400 ms 2340 week >> 593847220 ms 2340 week
[20241116 13:16:36.802] NMEA Error: NMEA ZDA Error: Reversed time (#4): 593847400 ms 2340 week >> 593847220 ms 2340 week
[20241116 13:16:36.802]   1: $GNZDA,205709.400,16,11,2024,00,00*46
[20241116 13:16:36.802]   2: $GNZDA,205709.220,16,11,2024,00,00*42
[20241116 13:16:36.802] NMEA Error: NMEA GGA Error: Reversed time (#8): 593829400 ms 0 week >> 593829220 ms 0 week
[20241116 13:16:36.802]   1: $GNGGA,205709.400,4017.89503,N,11145.48617,W,1,96,0.86,0.86,M,1407.67,M,,*68
[20241116 13:16:36.802]   2: $GNGGA,205709.220,4017.85363,N,11145.52757,W,0,78,0.69,0.69,M,1407.84,M,,*62
[20241116 13:16:36.802] NMEA Error: ISB GpsPos1 Error: Reversed time (#9): 593847400 ms 2340 week >> 593847240 ms 2340 week
[20241116 13:16:36.802] NMEA Error: NMEA ZDA Error: Reversed time (#5): 593847400 ms 2340 week >> 593847240 ms 2340 week
[20241116 13:16:36.802]   1: $GNZDA,205709.400,16,11,2024,00,00*46
[20241116 13:16:36.802]   2: $GNZDA,205709.240,16,11,2024,00,00*44
[20241116 13:16:36.802] NMEA Error: NMEA GGA Error: Reversed time (#10): 593829400 ms 0 week >> 593829240 ms 0 week
[20241116 13:16:36.802]   1: $GNGGA,205709.400,4017.81595,N,11145.56525,W,0,140,0.63,0.63,M,1407.90,M,,*51
[20241116 13:16:36.802]   2: $GNGGA,205709.240,4017.77809,N,11145.60311,W,0,137,0.63,0.63,M,1407.90,M,,*56
[20241116 13:16:36.802] NMEA Error: ISB GpsPos1 Error: Reversed time (#11): 593847400 ms 2340 week >> 593847260 ms 2340 week
[20241116 13:16:36.802] NMEA Error: NMEA ZDA Error: Reversed time (#6): 593847400 ms 2340 week >> 593847260 ms 2340 week
[20241116 13:16:36.802]   1: $GNZDA,205709.400,16,11,2024,00,00*46
[20241116 13:16:36.802]   2: $GNZDA,205709.260,16,11,2024,00,00*46
[20241116 13:16:36.803] NMEA Error: NMEA GGA Error: Reversed time (#12): 593829400 ms 0 week >> 593829260 ms 0 week
[20241116 13:16:36.803]   1: $GNGGA,205709.400,4017.79663,N,11145.58457,W,6,53,0.31,0.31,M,1408.22,M,,*65
[20241116 13:16:36.803]   2: $GNGGA,205709.260,4017.79291,N,11145.58829,W,0,194,0.06,0.06,M,1408.47,M,,*56
[20241116 13:16:36.803] NMEA Error: ISB GpsPos1 Error: Reversed time (#13): 593847400 ms 2340 week >> 593847280 ms 2340 week
[20241116 13:16:36.803] NMEA Error: NMEA ZDA Error: Reversed time (#7): 593847400 ms 2340 week >> 593847280 ms 2340 week
[20241116 13:16:36.803]   1: $GNZDA,205709.400,16,11,2024,00,00*46
[20241116 13:16:36.803]   2: $GNZDA,205709.280,16,11,2024,00,00*48
[20241116 13:16:36.803] NMEA Error: NMEA GGA Error: Reversed time (#14): 593829400 ms 0 week >> 593829280 ms 0 week
[20241116 13:16:36.803]   1: $GNGGA,205709.400,4017.81673,N,11145.56447,W,6,141,0.40,0.40,M,1408.13,M,,*5C
[20241116 13:16:36.803]   2: $GNGGA,205709.280,4017.87373,N,11145.50747,W,1,182,0.95,0.95,M,1407.58,M,,*5C
[20241116 13:16:36.803] NMEA Error: ISB GpsPos1 Error: Reversed time (#15): 593847400 ms 2340 week >> 593847300 ms 2340 week
[20241116 13:16:36.803] NMEA Error: NMEA ZDA Error: Reversed time (#8): 593847400 ms 2340 week >> 593847300 ms 2340 week
[20241116 13:16:36.803]   1: $GNZDA,205709.400,16,11,2024,00,00*46
[20241116 13:16:36.803]   2: $GNZDA,205709.300,16,11,2024,00,00*41
[20241116 13:16:36.803] NMEA Error: NMEA GGA Error: Reversed time (#16): 593829400 ms 0 week >> 593829300 ms 0 week
[20241116 13:16:36.803]   1: $GNGGA,205709.400,4017.84307,N,11145.53813,W,0,01,0.51,0.51,M,1408.02,M,,*64
[20241116 13:16:36.803]   2: $GNGGA,205709.300,4017.88849,N,11145.49271,W,1,245,0.76,0.76,M,1407.78,M,,*5A
[20241116 13:16:36.803] NMEA Error: ISB GpsPos1 Error: Reversed time (#17): 593847400 ms 2340 week >> 593847320 ms 2340 week
[20241116 13:16:36.803] NMEA Error: NMEA ZDA Error: Reversed time (#9): 593847400 ms 2340 week >> 593847320 ms 2340 week
[20241116 13:16:36.803]   1: $GNZDA,205709.400,16,11,2024,00,00*46
[20241116 13:16:36.803]   2: $GNZDA,205709.320,16,11,2024,00,00*43
[20241116 13:16:36.803] NMEA Error: NMEA GGA Error: Reversed time (#18): 593829400 ms 0 week >> 593829320 ms 0 week
[20241116 13:16:36.803]   1: $GNGGA,205709.400,4017.94303,N,11145.43817,W,1,141,0.91,0.91,M,1407.62,M,,*59
[20241116 13:16:36.803]   2: $GNGGA,205709.320,4017.88501,N,11145.49619,W,0,57,0.97,0.97,M,1407.57,M,,*6E
[20241116 13:16:36.803] NMEA Error: ISB GpsPos1 Error: Reversed time (#19): 593847400 ms 2340 week >> 593847340 ms 2340 week
[20241116 13:16:36.803] NMEA Error: NMEA ZDA Error: Reversed time (#10): 593847400 ms 2340 week >> 593847340 ms 2340 week
[20241116 13:16:36.803]   1: $GNZDA,205709.400,16,11,2024,00,00*46
[20241116 13:16:36.803]   2: $GNZDA,205709.340,16,11,2024,00,00*45
[20241116 13:16:36.803] NMEA Error: NMEA GGA Error: Reversed time (#20): 593829400 ms 0 week >> 593829340 ms 0 week
[20241116 13:16:36.803]   1: $GNGGA,205709.400,4017.94477,N,11145.43643,W,1,228,1.00,1.00,M,1407.54,M,,*5B
[20241116 13:16:36.803]   2: $GNGGA,205709.340,4017.93607,N,11145.44513,W,0,111,0.15,0.15,M,1408.39,M,,*57
[20241116 13:16:36.803] NMEA Error: ISB GpsPos1 Error: Reversed time (#21): 593847400 ms 2340 week >> 593847360 ms 2340 week
[20241116 13:16:36.803] NMEA Error: NMEA ZDA Error: Reversed time (#11): 593847400 ms 2340 week >> 593847360 ms 2340 week
[20241116 13:16:36.803]   1: $GNZDA,205709.400,16,11,2024,00,00*46
[20241116 13:16:36.803]   2: $GNZDA,205709.360,16,11,2024,00,00*47
[20241116 13:16:36.803] NMEA Error: NMEA GGA Error: Reversed time (#22): 593829400 ms 0 week >> 593829360 ms 0 week
[20241116 13:16:36.803]   1: $GNGGA,205709.400,4017.97627,N,11145.40493,W,1,158,0.67,0.67,M,1407.86,M,,*58
[20241116 13:16:36.803]   2: $GNGGA,205709.360,4017.96469,N,11145.41651,W,0,63,0.19,0.19,M,1408.34,M,,*63
[20241116 13:16:36.803] NMEA Error: ISB GpsPos1 Error: Reversed time (#23): 593847400 ms 2340 week >> 593847380 ms 2340 week
[20241116 13:16:36.803] NMEA Error: NMEA ZDA Error: Reversed time (#12): 593847400 ms 2340 week >> 593847380 ms 2340 week
[20241116 13:16:36.803]   1: $GNZDA,205709.400,16,11,2024,00,00*46
[20241116 13:16:36.803]   2: $GNZDA,205709.380,16,11,2024,00,00*49
[20241116 13:16:36.803] NMEA Error: NMEA GGA Error: Reversed time (#24): 593829400 ms 0 week >> 593829380 ms 0 week
[20241116 13:16:36.803]   1: $GNGGA,205709.400,4017.96823,N,11145.41297,W,0,59,0.06,0.06,M,1408.48,M,,*6C
[20241116 13:16:36.803]   2: $GNGGA,205709.380,4018.02517,N,11145.35603,W,1,181,0.95,0.95,M,1407.59,M,,*5B
[20241116 13:16:36.803] NMEA Error: ISB GpsPos1 Error: Duplicate time (#25): 593847400 ms 2340 week >> 593847400 ms 2340 week
[20241116 13:16:36.803] NMEA Error: NMEA ZDA Error: Duplicate time (#13): 593847400 ms 2340 week >> 593847400 ms 2340 week
[20241116 13:16:36.803]   1: $GNZDA,205709.400,16,11,2024,00,00*46
[20241116 13:16:36.803]   2: $GNZDA,205709.400,16,11,2024,00,00*46
[20241116 13:16:36.803] NMEA Error: NMEA GGA Error: Duplicate time (#26): 593829400 ms 0 week >> 593829400 ms 0 week
[20241116 13:16:36.803]   1: $GNGGA,205709.400,4017.98443,N,11145.39677,W,0,89,0.68,0.68,M,1407.86,M,,*6D
[20241116 13:16:36.803]   2: $GNGGA,205709.400,4017.96661,N,11145.41459,W,0,215,0.30,0.30,M,1408.24,M,,*50
[20241116 13:16:36.803] NMEA Error: ISB GpsPos1 Error: Reversed time (#27): 593847600 ms 2340 week >> 593847400 ms 2340 week
[20241116 13:16:36.803] NMEA Error: NMEA ZDA Error: Reversed time (#14): 593847600 ms 2340 week >> 593847400 ms 2340 week
[20241116 13:16:36.803]   1: $GNZDA,205709.600,16,11,2024,00,00*44
[20241116 13:16:36.803]   2: $GNZDA,205709.400,16,11,2024,00,00*46
[20241116 13:16:36.803] NMEA Error: NMEA GGA Error: Reversed time (#28): 593829600 ms 0 week >> 593829400 ms 0 week
[20241116 13:16:36.803]   1: $GNGGA,205709.600,4017.95827,N,11145.42293,W,0,117,0.14,0.14,M,1408.40,M,,*5D
[20241116 13:16:36.803]   2: $GNGGA,205709.400,4017.90127,N,11145.47993,W,0,74,0.95,0.95,M,1407.58,M,,*6F
[20241116 13:16:36.803] NMEA Error: ISB GpsPos1 Error: Reversed time (#29): 593847600 ms 2340 week >> 593847400 ms 2340 week
[20241116 13:16:36.803] NMEA Error: NMEA ZDA Error: Reversed time (#15): 593847600 ms 2340 week >> 593847400 ms 2340 week
[20241116 13:16:36.803]   1: $GNZDA,205709.600,16,11,2024,00,00*44
[20241116 13:16:36.803]   2: $GNZDA,205709.400,16,11,2024,00,00*46
[20241116 13:16:36.803] NMEA Error: NMEA GGA Error: Reversed time (#30): 593829600 ms 0 week >> 593829400 ms 0 week
[20241116 13:16:36.803]   1: $GNGGA,205709.600,4017.88639,N,11145.49481,W,0,08,0.25,0.25,M,1408.28,M,,*6F
[20241116 13:16:36.803]   2: $GNGGA,205709.400,4017.92077,N,11145.46043,W,1,61,0.57,0.57,M,1407.96,M,,*6B
[20241116 13:16:36.803] NMEA Error: ISB GpsPos1 Error: Reversed time (#31): 593847600 ms 2340 week >> 593847420 ms 2340 week
[20241116 13:16:36.803] NMEA Error: NMEA ZDA Error: Reversed time (#16): 593847600 ms 2340 week >> 593847420 ms 2340 week
[20241116 13:16:36.803]   1: $GNZDA,205709.600,16,11,2024,00,00*44
[20241116 13:16:36.803]   2: $GNZDA,205709.420,16,11,2024,00,00*44
[20241116 13:16:36.803] NMEA Error: NMEA GGA Error: Reversed time (#32): 593829600 ms 0 week >> 593829420 ms 0 week
[20241116 13:16:36.803]   1: $GNGGA,205709.600,4017.96793,N,11145.41327,W,1,18,0.79,0.79,M,1407.75,M,,*65
[20241116 13:16:36.803]   2: $GNGGA,205709.420,4017.92053,N,11145.46067,W,0,234,0.79,0.79,M,1407.74,M,,*56
[20241116 13:16:36.803] NMEA Error: ISB GpsPos1 Error: Reversed time (#33): 593847600 ms 2340 week >> 593847440 ms 2340 week
[20241116 13:16:36.803] NMEA Error: NMEA ZDA Error: Reversed time (#17): 593847600 ms 2340 week >> 593847440 ms 2340 week
[20241116 13:16:36.803]   1: $GNZDA,205709.600,16,11,2024,00,00*44
[20241116 13:16:36.803]   2: $GNZDA,205709.440,16,11,2024,00,00*42
[20241116 13:16:36.803] NMEA Error: NMEA GGA Error: Reversed time (#34): 593829600 ms 0 week >> 593829440 ms 0 week
[20241116 13:16:36.803]   1: $GNGGA,205709.600,4017.90025,N,11145.48095,W,0,174,0.34,0.34,M,1408.20,M,,*5F
[20241116 13:16:36.803]   2: $GNGGA,205709.440,4017.85969,N,11145.52151,W,0,92,0.68,0.68,M,1407.86,M,,*64
[20241116 13:16:36.803] NMEA Error: ISB GpsPos1 Error: Reversed time (#35): 593847600 ms 2340 week >> 593847460 ms 2340 week
[20241116 13:16:36.803] NMEA Error: NMEA ZDA Error: Reversed time (#18): 593847600 ms 2340 week >> 593847460 ms 2340 week
[20241116 13:16:36.803]   1: $GNZDA,205709.600,16,11,2024,00,00*44
[20241116 13:16:36.803]   2: $GNZDA,205709.460,16,11,2024,00,00*40
[20241116 13:16:36.803] NMEA Error: NMEA GGA Error: Reversed time (#36): 593829600 ms 0 week >> 593829460 ms 0 week
[20241116 13:16:36.803]   1: $GNGGA,205709.600,4017.90037,N,11145.48083,W,1,166,0.68,0.68,M,1407.86,M,,*5A
[20241116 13:16:36.803]   2: $GNGGA,205709.460,4017.92407,N,11145.45713,W,6,139,0.40,0.40,M,1408.14,M,,*51
[20241116 13:16:36.803] NMEA Error: ISB GpsPos1 Error: Reversed time (#37): 593847600 ms 2340 week >> 593847480 ms 2340 week
[20241116 13:16:36.803] NMEA Error: NMEA ZDA Error: Reversed time (#19): 593847600 ms 2340 week >> 593847480 ms 2340 week
[20241116 13:16:36.803]   1: $GNZDA,205709.600,16,11,2024,00,00*44
[20241116 13:16:36.803]   2: $GNZDA,205709.480,16,11,2024,00,00*4E
[20241116 13:16:36.803] NMEA Error: NMEA GGA Error: Reversed time (#38): 593829600 ms 0 week >> 593829480 ms 0 week
[20241116 13:16:36.803]   1: $GNGGA,205709.600,4017.89479,N,11145.48641,W,0,24,0.49,0.49,M,1408.04,M,,*67
[20241116 13:16:36.803]   2: $GNGGA,205709.480,4017.87061,N,11145.51059,W,0,109,0.40,0.40,M,1408.13,M,,*51
[20241116 13:16:36.803] NMEA Error: ISB GpsPos1 Error: Reversed time (#39): 593847600 ms 2340 week >> 593847500 ms 2340 week
[20241116 13:16:36.803] NMEA Error: NMEA ZDA Error: Reversed time (#20): 593847600 ms 2340 week >> 593847500 ms 2340 week
[20241116 13:16:36.803]   1: $GNZDA,205709.600,16,11,2024,00,00*44
[20241116 13:16:36.803]   2: $GNZDA,205709.500,16,11,2024,00,00*47
[20241116 13:16:36.803] NMEA Error: NMEA GGA Error: Reversed time (#40): 593829600 ms 0 week >> 593829500 ms 0 week
[20241116 13:16:36.803]   1: $GNGGA,205709.600,4017.91117,N,11145.47003,W,1,164,0.68,0.68,M,1407.86,M,,*5D
[20241116 13:16:36.803]   2: $GNGGA,205709.500,4017.89701,N,11145.48419,W,0,20,0.24,0.24,M,1408.30,M,,*64
[20241116 13:16:36.803] NMEA Error: ISB GpsPos1 Error: Reversed time (#41): 593847600 ms 2340 week >> 593847520 ms 2340 week
[20241116 13:16:36.803] NMEA Error: NMEA ZDA Error: Reversed time (#21): 593847600 ms 2340 week >> 593847520 ms 2340 week
[20241116 13:16:36.803]   1: $GNZDA,205709.600,16,11,2024,00,00*44
[20241116 13:16:36.803]   2: $GNZDA,205709.520,16,11,2024,00,00*45
[20241116 13:16:36.803] NMEA Error: NMEA GGA Error: Reversed time (#42): 593829600 ms 0 week >> 593829520 ms 0 week
[20241116 13:16:36.803]   1: $GNGGA,205709.600,4017.89059,N,11145.49061,W,0,149,0.11,0.11,M,1408.43,M,,*5D
[20241116 13:16:36.803]   2: $GNGGA,205709.520,4017.94033,N,11145.44087,W,1,61,0.83,0.83,M,1407.70,M,,*6C
[20241116 13:16:36.803] NMEA Error: ISB GpsPos1 Error: Reversed time (#43): 593847600 ms 2340 week >> 593847540 ms 2340 week
[20241116 13:16:36.803] NMEA Error: NMEA ZDA Error: Reversed time (#22): 593847600 ms 2340 week >> 593847540 ms 2340 week
[20241116 13:16:36.803]   1: $GNZDA,205709.600,16,11,2024,00,00*44
[20241116 13:16:36.803]   2: $GNZDA,205709.540,16,11,2024,00,00*43
[20241116 13:16:36.803] NMEA Error: NMEA GGA Error: Reversed time (#44): 593829600 ms 0 week >> 593829540 ms 0 week
[20241116 13:16:36.803]   1: $GNGGA,205709.600,4017.98047,N,11145.40073,W,1,157,0.67,0.67,M,1407.87,M,,*51
[20241116 13:16:36.803]   2: $GNGGA,205709.540,4018.01485,N,11145.36635,W,1,61,0.57,0.57,M,1407.96,M,,*62
[20241116 13:16:36.803] NMEA Error: ISB GpsPos1 Error: Reversed time (#45): 593847600 ms 2340 week >> 593847560 ms 2340 week
[20241116 13:16:36.803] NMEA Error: NMEA ZDA Error: Reversed time (#23): 593847600 ms 2340 week >> 593847560 ms 2340 week
[20241116 13:16:36.803]   1: $GNZDA,205709.600,16,11,2024,00,00*44
[20241116 13:16:36.803]   2: $GNZDA,205709.560,16,11,2024,00,00*41
[20241116 13:16:36.803] NMEA Error: NMEA GGA Error: Reversed time (#46): 593829600 ms 0 week >> 593829560 ms 0 week
[20241116 13:16:36.803]   1: $GNGGA,205709.600,4017.98311,N,11145.39809,W,0,239,0.53,0.53,M,1408.01,M,,*51
[20241116 13:16:36.803]   2: $GNGGA,205709.560,4017.99595,N,11145.38525,W,0,214,0.21,0.21,M,1408.32,M,,*52
[20241116 13:16:36.803] NMEA Error: ISB GpsPos1 Error: Reversed time (#47): 593847600 ms 2340 week >> 593847580 ms 2340 week
[20241116 13:16:36.803] NMEA Error: NMEA ZDA Error: Reversed time (#24): 593847600 ms 2340 week >> 593847580 ms 2340 week
[20241116 13:16:36.803]   1: $GNZDA,205709.600,16,11,2024,00,00*44
[20241116 13:16:36.803]   2: $GNZDA,205709.580,16,11,2024,00,00*4F
[20241116 13:16:36.803] NMEA Error: NMEA GGA Error: Reversed time (#48): 593829600 ms 0 week >> 593829580 ms 0 week
[20241116 13:16:36.803]   1: $GNGGA,205709.600,4017.95833,N,11145.42287,W,0,141,0.63,0.63,M,1407.91,M,,*5D
[20241116 13:16:36.803]   2: $GNGGA,205709.580,4018.00429,N,11145.37691,W,1,254,0.77,0.77,M,1407.77,M,,*5D
[20241116 13:16:36.803] NMEA Error: ISB GpsPos1 Error: Duplicate time (#49): 593847600 ms 2340 week >> 593847600 ms 2340 week
[20241116 13:16:36.803] NMEA Error: NMEA ZDA Error: Duplicate time (#25): 593847600 ms 2340 week >> 593847600 ms 2340 week
[20241116 13:16:36.803]   1: $GNZDA,205709.600,16,11,2024,00,00*44
[20241116 13:16:36.803]   2: $GNZDA,205709.600,16,11,2024,00,00*44
[20241116 13:16:36.803] NMEA Error: NMEA GGA Error: Duplicate time (#50): 593829600 ms 0 week >> 593829600 ms 0 week
[20241116 13:16:36.803]   1: $GNGGA,205709.600,4017.98587,N,11145.39533,W,0,205,0.31,0.31,M,1408.23,M,,*53
[20241116 13:16:36.803]   2: $GNGGA,205709.600,4018.00867,N,11145.37253,W,6,124,0.38,0.38,M,1408.15,M,,*52
[20241116 13:16:36.803] NMEA Error: ISB GpsPos1 Error: Reversed time (#51): 593847800 ms 2340 week >> 593847600 ms 2340 week
[20241116 13:16:36.803] NMEA Error: NMEA ZDA Error: Reversed time (#26): 593847800 ms 2340 week >> 593847600 ms 2340 week
[20241116 13:16:36.803]   1: $GNZDA,205709.800,16,11,2024,00,00*4A
[20241116 13:16:36.803]   2: $GNZDA,205709.600,16,11,2024,00,00*44
[20241116 13:16:36.803] NMEA Error: NMEA GGA Error: Reversed time (#52): 593829800 ms 0 week >> 593829600 ms 0 week
[20241116 13:16:36.803]   1: $GNGGA,205709.800,4018.00699,N,11145.37421,W,0,228,0.03,0.03,M,1408.51,M,,*59
[20241116 13:16:36.803]   2: $GNGGA,205709.600,4017.96559,N,11145.41561,W,0,78,0.69,0.69,M,1407.84,M,,*6C
[20241116 13:16:36.803] NMEA Error: ISB GpsPos1 Error: Reversed time (#53): 593847800 ms 2340 week >> 593847600 ms 2340 week
[20241116 13:16:36.803] NMEA Error: NMEA ZDA Error: Reversed time (#27): 593847800 ms 2340 week >> 593847600 ms 2340 week
[20241116 13:16:36.803]   1: $GNZDA,205709.800,16,11,2024,00,00*4A
[20241116 13:16:36.803]   2: $GNZDA,205709.600,16,11,2024,00,00*44
[20241116 13:16:36.803] NMEA Error: NMEA GGA Error: Reversed time (#54): 593829800 ms 0 week >> 593829600 ms 0 week
[20241116 13:16:36.803]   1: $GNGGA,205709.800,4018.01791,N,11145.36329,W,1,104,0.87,0.87,M,1407.66,M,,*58
[20241116 13:16:36.803]   2: $GNGGA,205709.600,4018.02235,N,11145.35885,W,0,74,0.07,0.07,M,1408.46,M,,*6A
[20241116 13:16:36.803] NMEA Error: ISB GpsPos1 Error: Reversed time (#55): 593847800 ms 2340 week >> 593847620 ms 2340 week
[20241116 13:16:36.803] NMEA Error: NMEA ZDA Error: Reversed time (#28): 593847800 ms 2340 week >> 593847620 ms 2340 week
[20241116 13:16:36.803]   1: $GNZDA,205709.800,16,11,2024,00,00*4A
[20241116 13:16:36.803]   2: $GNZDA,205709.620,16,11,2024,00,00*46
[20241116 13:16:36.803] NMEA Error: NMEA GGA Error: Reversed time (#56): 593829800 ms 0 week >> 593829620 ms 0 week
[20241116 13:16:36.803]   1: $GNGGA,205709.800,4018.08067,N,11145.30053,W,1,204,0.97,0.97,M,1407.56,M,,*57
[20241116 13:16:36.803]   2: $GNGGA,205709.620,4018.07437,N,11145.30683,W,0,151,0.11,0.11,M,1408.43,M,,*57
[20241116 13:16:36.803] NMEA Error: ISB GpsPos1 Error: Reversed time (#57): 593847800 ms 2340 week >> 593847640 ms 2340 week
[20241116 13:16:36.803] NMEA Error: NMEA ZDA Error: Reversed time (#29): 593847800 ms 2340 week >> 593847640 ms 2340 week
[20241116 13:16:36.803]   1: $GNZDA,205709.800,16,11,2024,00,00*4A
[20241116 13:16:36.803]   2: $GNZDA,205709.640,16,11,2024,00,00*40
[20241116 13:16:36.803] NMEA Error: NMEA GGA Error: Reversed time (#58): 593829800 ms 0 week >> 593829640 ms 0 week
[20241116 13:16:36.803]   1: $GNGGA,205709.800,4018.11091,N,11145.27029,W,1,97,0.61,0.61,M,1407.93,M,,*6C
[20241116 13:16:36.803]   2: $GNGGA,205709.640,4018.14703,N,11145.23417,W,1,90,0.60,0.60,M,1407.94,M,,*62
[20241116 13:16:36.803] NMEA Error: ISB GpsPos1 Error: Reversed time (#59): 593847800 ms 2340 week >> 593847660 ms 2340 week
[20241116 13:16:36.803] NMEA Error: NMEA ZDA Error: Reversed time (#30): 593847800 ms 2340 week >> 593847660 ms 2340 week
[20241116 13:16:36.803]   1: $GNZDA,205709.800,16,11,2024,00,00*4A
[20241116 13:16:36.803]   2: $GNZDA,205709.660,16,11,2024,00,00*42
[20241116 13:16:36.803] NMEA Error: NMEA GGA Error: Reversed time (#60): 593829800 ms 0 week >> 593829660 ms 0 week
[20241116 13:16:36.803]   1: $GNGGA,205709.800,4018.11925,N,11145.26195,W,0,49,0.46,0.46,M,1408.07,M,,*6D
[20241116 13:16:36.803]   2: $GNGGA,205709.660,4018.10305,N,11145.27815,W,0,242,0.27,0.27,M,1408.27,M,,*57
[20241116 13:16:36.803] NMEA Error: ISB GpsPos1 Error: Reversed time (#61): 593847800 ms 2340 week >> 593847680 ms 2340 week
[20241116 13:16:36.803] NMEA Error: NMEA ZDA Error: Reversed time (#31): 593847800 ms 2340 week >> 593847680 ms 2340 week
[20241116 13:16:36.803]   1: $GNZDA,205709.800,16,11,2024,00,00*4A
[20241116 13:16:36.803]   2: $GNZDA,205709.680,16,11,2024,00,00*4C
[20241116 13:16:36.803] NMEA Error: NMEA GGA Error: Reversed time (#62): 593829800 ms 0 week >> 593829680 ms 0 week
[20241116 13:16:36.803]   1: $GNGGA,205709.800,4018.15351,N,11145.22769,W,1,73,0.84,0.84,M,1407.70,M,,*66
[20241116 13:16:36.803]   2: $GNGGA,205709.680,4018.13617,N,11145.24503,W,0,223,0.29,0.29,M,1408.25,M,,*50
[20241116 13:16:36.803] NMEA Error: ISB GpsPos1 Error: Reversed time (#63): 593847800 ms 2340 week >> 593847700 ms 2340 week
[20241116 13:16:36.803] NMEA Error: NMEA ZDA Error: Reversed time (#32): 593847800 ms 2340 week >> 593847700 ms 2340 week
[20241116 13:16:36.803]   1: $GNZDA,205709.800,16,11,2024,00,00*4A
[20241116 13:16:36.803]   2: $GNZDA,205709.700,16,11,2024,00,00*45
[20241116 13:16:36.803] NMEA Error: NMEA GGA Error: Reversed time (#64): 593829800 ms 0 week >> 593829700 ms 0 week
[20241116 13:16:36.803]   1: $GNGGA,205709.800,4018.07785,N,11145.30335,W,0,52,0.97,0.97,M,1407.56,M,,*60
[20241116 13:16:36.803]   2: $GNGGA,205709.700,4018.09777,N,11145.28343,W,6,76,0.33,0.33,M,1408.20,M,,*6A
[20241116 13:16:36.803] NMEA Error: ISB GpsPos1 Error: Reversed time (#65): 593847800 ms 2340 week >> 593847720 ms 2340 week
[20241116 13:16:36.803] NMEA Error: NMEA ZDA Error: Reversed time (#33): 593847800 ms 2340 week >> 593847720 ms 2340 week
[20241116 13:16:36.803]   1: $GNZDA,205709.800,16,11,2024,00,00*4A
[20241116 13:16:36.803]   2: $GNZDA,205709.720,16,11,2024,00,00*47
[20241116 13:16:36.803] NMEA Error: NMEA GGA Error: Reversed time (#66): 593829800 ms 0 week >> 593829720 ms 0 week
[20241116 13:16:36.803]   1: $GNGGA,205709.800,4018.15291,N,11145.22829,W,1,151,0.92,0.92,M,1407.62,M,,*52
[20241116 13:16:36.803]   2: $GNGGA,205709.720,4018.16251,N,11145.21869,W,0,160,0.16,0.16,M,1408.38,M,,*54
[20241116 13:16:36.803] NMEA Error: ISB GpsPos1 Error: Reversed time (#67): 593847800 ms 2340 week >> 593847740 ms 2340 week
[20241116 13:16:36.803] NMEA Error: NMEA ZDA Error: Reversed time (#34): 593847800 ms 2340 week >> 593847740 ms 2340 week
[20241116 13:16:36.803]   1: $GNZDA,205709.800,16,11,2024,00,00*4A
[20241116 13:16:36.803]   2: $GNZDA,205709.740,16,11,2024,00,00*41
[20241116 13:16:36.803] NMEA Error: NMEA GGA Error: Reversed time (#68): 593829800 ms 0 week >> 593829740 ms 0 week
[20241116 13:16:36.803]   1: $GNGGA,205709.800,4018.13545,N,11145.24575,W,0,61,0.45,0.45,M,1408.09,M,,*69
[20241116 13:16:36.803]   2: $GNGGA,205709.740,4018.15165,N,11145.22955,W,6,14,0.27,0.27,M,1408.27,M,,*62
[20241116 13:16:36.803] NMEA Error: ISB GpsPos1 Error: Reversed time (#69): 593847800 ms 2340 week >> 593847760 ms 2340 week
[20241116 13:16:36.803] NMEA Error: NMEA ZDA Error: Reversed time (#35): 593847800 ms 2340 week >> 593847760 ms 2340 week
[20241116 13:16:36.803]   1: $GNZDA,205709.800,16,11,2024,00,00*4A
[20241116 13:16:36.803]   2: $GNZDA,205709.760,16,11,2024,00,00*43
[20241116 13:16:36.803] NMEA Error: NMEA GGA Error: Reversed time (#70): 593829800 ms 0 week >> 593829760 ms 0 week
[20241116 13:16:36.803]   1: $GNGGA,205709.800,4018.20787,N,11145.17333,W,1,169,0.94,0.94,M,1407.60,M,,*59
[20241116 13:16:36.803]   2: $GNGGA,205709.760,4018.18249,N,11145.19871,W,0,89,0.42,0.42,M,1408.11,M,,*68
[20241116 13:16:36.803] NMEA Error: ISB GpsPos1 Error: Reversed time (#71): 593847800 ms 2340 week >> 593847780 ms 2340 week
[20241116 13:16:36.803] NMEA Error: NMEA ZDA Error: Reversed time (#36): 593847800 ms 2340 week >> 593847780 ms 2340 week
[20241116 13:16:36.803]   1: $GNZDA,205709.800,16,11,2024,00,00*4A
[20241116 13:16:36.803]   2: $GNZDA,205709.780,16,11,2024,00,00*4D
[20241116 13:16:36.803] NMEA Error: NMEA GGA Error: Reversed time (#72): 593829800 ms 0 week >> 593829780 ms 0 week
[20241116 13:16:36.803]   1: $GNGGA,205709.800,4018.22245,N,11145.15875,W,1,154,0.67,0.67,M,1407.87,M,,*5C
[20241116 13:16:36.803]   2: $GNGGA,205709.780,4018.25953,N,11145.12167,W,1,106,0.62,0.62,M,1407.92,M,,*5E
[20241116 13:16:36.803] NMEA Error: ISB GpsPos1 Error: Duplicate time (#73): 593847800 ms 2340 week >> 593847800 ms 2340 week
[20241116 13:16:36.803] NMEA Error: NMEA ZDA Error: Duplicate time (#37): 593847800 ms 2340 week >> 593847800 ms 2340 week
[20241116 13:16:36.803]   1: $GNZDA,205709.800,16,11,2024,00,00*4A
[20241116 13:16:36.803]   2: $GNZDA,205709.800,16,11,2024,00,00*4A
[20241116 13:16:36.803] NMEA Error: NMEA GGA Error: Duplicate time (#74): 593829800 ms 0 week >> 593829800 ms 0 week
[20241116 13:16:36.803]   1: $GNGGA,205709.800,4018.30819,N,11145.07301,W,1,43,0.81,0.81,M,1407.73,M,,*6B
[20241116 13:16:36.803]   2: $GNGGA,205709.800,4018.29793,N,11145.08327,W,0,85,0.17,0.17,M,1408.37,M,,*61
[20241116 13:16:36.803] NMEA Error: ISB GpsPos1 Error: Reversed time (#75): 593848000 ms 2340 week >> 593847800 ms 2340 week
[20241116 13:16:36.803] NMEA Error: NMEA ZDA Error: Reversed time (#38): 593848000 ms 2340 week >> 593847800 ms 2340 week
[20241116 13:16:36.803]   1: $GNZDA,205710.000,16,11,2024,00,00*4A
[20241116 13:16:36.803]   2: $GNZDA,205709.800,16,11,2024,00,00*4A
[20241116 13:16:36.803] NMEA Error: NMEA GGA Error: Reversed time (#76): 593830000 ms 0 week >> 593829800 ms 0 week
[20241116 13:16:36.803]   1: $GNGGA,205710.000,4018.33753,N,11145.04367,W,1,148,0.66,0.66,M,1407.88,M,,*54
[20241116 13:16:36.803]   2: $GNGGA,205709.800,4018.35961,N,11145.02159,W,6,112,0.37,0.37,M,1408.17,M,,*55
[20241116 13:16:36.803] NMEA Error: ISB GpsPos1 Error: Reversed time (#77): 593848000 ms 2340 week >> 593847800 ms 2340 week
[20241116 13:16:36.803] NMEA Error: NMEA ZDA Error: Reversed time (#39): 593848000 ms 2340 week >> 593847800 ms 2340 week
[20241116 13:16:36.803]   1: $GNZDA,205710.000,16,11,2024,00,00*4A
[20241116 13:16:36.803]   2: $GNZDA,205709.800,16,11,2024,00,00*4A
[20241116 13:16:36.803] NMEA Error: NMEA GGA Error: Reversed time (#78): 593830000 ms 0 week >> 593829800 ms 0 week
[20241116 13:16:36.803]   1: $GNGGA,205710.000,4018.39387,N,11144.98733,W,1,59,0.57,0.57,M,1407.97,M,,*6D
[20241116 13:16:36.804]   2: $GNGGA,205709.800,4018.40989,N,11144.97131,W,6,11,0.27,0.27,M,1408.27,M,,*63
[20241116 13:16:36.804] NMEA Error: ISB GpsPos1 Error: Reversed time (#79): 593848000 ms 2340 week >> 593847820 ms 2340 week
[20241116 13:16:36.804] NMEA Error: NMEA ZDA Error: Reversed time (#40): 593848000 ms 2340 week >> 593847820 ms 2340 week
[20241116 13:16:36.804]   1: $GNZDA,205710.000,16,11,2024,00,00*4A
[20241116 13:16:36.804]   2: $GNZDA,205709.820,16,11,2024,00,00*48
[20241116 13:16:36.804] NMEA Error: NMEA GGA Error: Reversed time (#80): 593830000 ms 0 week >> 593829820 ms 0 week
[20241116 13:16:36.804]   1: $GNGGA,205710.000,4018.44187,N,11144.93933,W,1,21,0.53,0.53,M,1408.01,M,,*6F
[20241116 13:16:36.804]   2: $GNGGA,205709.820,4018.48249,N,11144.89871,W,1,165,0.68,0.68,M,1407.87,M,,*5C
[20241116 13:16:36.804] NMEA Error: ISB GpsPos1 Error: Reversed time (#81): 593848000 ms 2340 week >> 593847840 ms 2340 week
[20241116 13:16:36.804] NMEA Error: NMEA ZDA Error: Reversed time (#41): 593848000 ms 2340 week >> 593847840 ms 2340 week
[20241116 13:16:36.804]   1: $GNZDA,205710.000,16,11,2024,00,00*4A
[20241116 13:16:36.804]   2: $GNZDA,205709.840,16,11,2024,00,00*4E
[20241116 13:16:36.804] NMEA Error: NMEA GGA Error: Reversed time (#82): 593830000 ms 0 week >> 593829840 ms 0 week
[20241116 13:16:36.804]   1: $GNGGA,205710.000,4018.50913,N,11144.87207,W,6,188,0.44,0.44,M,1408.10,M,,*53
[20241116 13:16:36.804]   2: $GNGGA,205709.840,4018.45165,N,11144.92955,W,0,66,0.96,0.96,M,1407.58,M,,*66
[20241116 13:16:36.804] NMEA Error: ISB GpsPos1 Error: Reversed time (#83): 593848000 ms 2340 week >> 593847860 ms 2340 week
[20241116 13:16:36.804] NMEA Error: NMEA ZDA Error: Reversed time (#42): 593848000 ms 2340 week >> 593847860 ms 2340 week
[20241116 13:16:36.804]   1: $GNZDA,205710.000,16,11,2024,00,00*4A
[20241116 13:16:36.804]   2: $GNZDA,205709.860,16,11,2024,00,00*4C
[20241116 13:16:36.804] NMEA Error: NMEA GGA Error: Reversed time (#84): 593830000 ms 0 week >> 593829860 ms 0 week
[20241116 13:16:36.804]   1: $GNGGA,205710.000,4018.43509,N,11144.94611,W,0,236,0.28,0.28,M,1408.27,M,,*53
[20241116 13:16:36.804]   2: $GNGGA,205709.860,4018.46899,N,11144.91221,W,1,53,0.56,0.56,M,1407.98,M,,*6D
[20241116 13:16:36.804] NMEA Error: ISB GpsPos1 Error: Reversed time (#85): 593848000 ms 2340 week >> 593847880 ms 2340 week
[20241116 13:16:36.804] NMEA Error: NMEA ZDA Error: Reversed time (#43): 593848000 ms 2340 week >> 593847880 ms 2340 week
[20241116 13:16:36.804]   1: $GNZDA,205710.000,16,11,2024,00,00*4A
[20241116 13:16:36.804]   2: $GNZDA,205709.880,16,11,2024,00,00*42
[20241116 13:16:36.804] NMEA Error: NMEA GGA Error: Reversed time (#86): 593830000 ms 0 week >> 593829880 ms 0 week
[20241116 13:16:36.804]   1: $GNGGA,205710.000,4018.46113,N,11144.92007,W,0,125,0.13,0.13,M,1408.41,M,,*5F
[20241116 13:16:36.804]   2: $GNGGA,205709.880,4018.44355,N,11144.93765,W,0,219,0.29,0.29,M,1408.25,M,,*59
[20241116 13:16:36.804] NMEA Error: ISB GpsPos1 Error: Reversed time (#87): 593848000 ms 2340 week >> 593847900 ms 2340 week
[20241116 13:16:36.804] NMEA Error: NMEA ZDA Error: Reversed time (#44): 593848000 ms 2340 week >> 593847900 ms 2340 week
[20241116 13:16:36.804]   1: $GNZDA,205710.000,16,11,2024,00,00*4A
[20241116 13:16:36.804]   2: $GNZDA,205709.900,16,11,2024,00,00*4B
[20241116 13:16:36.804] NMEA Error: NMEA GGA Error: Reversed time (#88): 593830000 ms 0 week >> 593829900 ms 0 week
[20241116 13:16:36.804]   1: $GNGGA,205710.000,4018.48867,N,11144.89253,W,1,240,0.75,0.75,M,1407.79,M,,*57
[20241116 13:16:36.804]   2: $GNGGA,205709.900,4018.52203,N,11144.85917,W,1,44,0.56,0.56,M,1407.99,M,,*6A
[20241116 13:16:36.804] NMEA Error: ISB GpsPos1 Error: Reversed time (#89): 593848000 ms 2340 week >> 593847920 ms 2340 week
[20241116 13:16:36.804] NMEA Error: NMEA ZDA Error: Reversed time (#45): 593848000 ms 2340 week >> 593847920 ms 2340 week
[20241116 13:16:36.804]   1: $GNZDA,205710.000,16,11,2024,00,00*4A
[20241116 13:16:36.804]   2: $GNZDA,205709.920,16,11,2024,00,00*49
[20241116 13:16:36.804] NMEA Error: NMEA GGA Error: Reversed time (#90): 593830000 ms 0 week >> 593829920 ms 0 week
[20241116 13:16:36.804]   1: $GNGGA,205710.000,4018.49827,N,11144.88293,W,0,116,0.40,0.40,M,1408.15,M,,*5B
[20241116 13:16:36.804]   2: $GNGGA,205709.920,4018.52539,N,11144.85581,W,6,196,0.45,0.45,M,1408.09,M,,*5A
[20241116 13:16:36.804] NMEA Error: ISB GpsPos1 Error: Reversed time (#91): 593848000 ms 2340 week >> 593847940 ms 2340 week
[20241116 13:16:36.804] NMEA Error: NMEA ZDA Error: Reversed time (#46): 593848000 ms 2340 week >> 593847940 ms 2340 week
[20241116 13:16:36.804]   1: $GNZDA,205710.000,16,11,2024,00,00*4A
[20241116 13:16:36.804]   2: $GNZDA,205709.940,16,11,2024,00,00*4F
[20241116 13:16:36.804] NMEA Error: NMEA GGA Error: Reversed time (#92): 593830000 ms 0 week >> 593829940 ms 0 week
[20241116 13:16:36.804]   1: $GNGGA,205710.000,4018.53919,N,11144.84201,W,0,230,0.23,0.23,M,1408.31,M,,*5A
[20241116 13:16:36.804]   2: $GNGGA,205709.940,4018.50397,N,11144.87723,W,0,181,0.59,0.59,M,1407.96,M,,*5D
[20241116 13:16:36.804] NMEA Error: ISB GpsPos1 Error: Reversed time (#93): 593848000 ms 2340 week >> 593847960 ms 2340 week
[20241116 13:16:36.804] NMEA Error: NMEA ZDA Error: Reversed time (#47): 593848000 ms 2340 week >> 593847960 ms 2340 week
[20241116 13:16:36.804]   1: $GNZDA,205710.000,16,11,2024,00,00*4A
[20241116 13:16:36.804]   2: $GNZDA,205709.960,16,11,2024,00,00*4D
[20241116 13:16:36.804] NMEA Error: NMEA GGA Error: Reversed time (#94): 593830000 ms 0 week >> 593829960 ms 0 week
[20241116 13:16:36.804]   1: $GNGGA,205710.000,4018.49425,N,11144.88695,W,0,94,0.16,0.16,M,1408.38,M,,*63
[20241116 13:16:36.804]   2: $GNGGA,205709.960,4018.46557,N,11144.91563,W,0,34,0.48,0.48,M,1408.06,M,,*6A
[20241116 13:16:36.804] NMEA Error: ISB GpsPos1 Error: Reversed time (#95): 593848000 ms 2340 week >> 593847980 ms 2340 week
[20241116 13:16:36.804] NMEA Error: NMEA ZDA Error: Reversed time (#48): 593848000 ms 2340 week >> 593847980 ms 2340 week
[20241116 13:16:36.804]   1: $GNZDA,205710.000,16,11,2024,00,00*4A
[20241116 13:16:36.804]   2: $GNZDA,205709.980,16,11,2024,00,00*43
[20241116 13:16:36.804] NMEA Error: NMEA GGA Error: Reversed time (#96): 593830000 ms 0 week >> 593829980 ms 0 week
[20241116 13:16:36.804]   1: $GNGGA,205710.000,4018.44379,N,11144.93741,W,0,149,0.36,0.36,M,1408.18,M,,*51
[20241116 13:16:36.804]   2: $GNGGA,205709.980,4018.49809,N,11144.88311,W,1,137,0.91,0.91,M,1407.64,M,,*5E
[20241116 13:16:36.804] NMEA Error: ISB GpsPos1 Error: Duplicate time (#97): 593848000 ms 2340 week >> 593848000 ms 2340 week
[20241116 13:16:36.804] NMEA Error: NMEA ZDA Error: Duplicate time (#49): 593848000 ms 2340 week >> 593848000 ms 2340 week
[20241116 13:16:36.804]   1: $GNZDA,205710.000,16,11,2024,00,00*4A
[20241116 13:16:36.804]   2: $GNZDA,205710.000,16,11,2024,00,00*4A
[20241116 13:16:36.804] NMEA Error: NMEA GGA Error: Duplicate time (#98): 593830000 ms 0 week >> 593830000 ms 0 week
[20241116 13:16:36.804]   1: $GNGGA,205710.000,4018.50661,N,11144.87459,W,0,142,0.14,0.14,M,1408.40,M,,*51
[20241116 13:16:36.804]   2: $GNGGA,205710.000,4018.46377,N,11144.91743,W,0,54,0.71,0.71,M,1407.83,M,,*6D
[20241116 13:16:36.804] NMEA Error: ISB GpsPos1 Error: Reversed time (#99): 593848200 ms 2340 week >> 593848000 ms 2340 week
[20241116 13:16:36.804] NMEA Error: NMEA ZDA Error: Reversed time (#50): 593848200 ms 2340 week >> 593848000 ms 2340 week
[20241116 13:16:36.804]   1: $GNZDA,205710.200,16,11,2024,00,00*48
[20241116 13:16:36.804]   2: $GNZDA,205710.000,16,11,2024,00,00*4A
[20241116 13:16:36.804] NMEA Error: NMEA GGA Error: Reversed time (#100): 593830200 ms 0 week >> 593830000 ms 0 week
[20241116 13:16:36.804]   1: $GNGGA,205710.200,4018.40431,N,11144.97689,W,0,33,0.99,0.99,M,1407.55,M,,*67
[20241116 13:16:36.804]   2: $GNGGA,205710.000,4018.45741,N,11144.92379,W,1,117,0.89,0.89,M,1407.66,M,,*5D
[20241116 13:16:36.804] NMEA Error: ISB GpsPos1 Error: Reversed time (#101): 593848200 ms 2340 week >> 593848000 ms 2340 week
[20241116 13:16:36.804] NMEA Error: NMEA ZDA Error: Reversed time (#51): 593848200 ms 2340 week >> 593848000 ms 2340 week
[20241116 13:16:36.804]   1: $GNZDA,205710.200,16,11,2024,00,00*48
[20241116 13:16:36.804]   2: $GNZDA,205710.000,16,11,2024,00,00*4A
[20241116 13:16:36.804] NMEA Error: NMEA GGA Error: Reversed time (#102): 593830200 ms 0 week >> 593830000 ms 0 week
[20241116 13:16:36.804]   1: $GNGGA,205710.200,4018.40527,N,11144.97593,W,0,155,0.87,0.87,M,1407.67,M,,*59
[20241116 13:16:36.804]   2: $GNGGA,205710.000,4018.42045,N,11144.96075,W,0,253,0.25,0.25,M,1408.29,M,,*54
[20241116 13:16:36.804] NMEA Error: ISB GpsPos1 Error: Reversed time (#103): 593848200 ms 2340 week >> 593848020 ms 2340 week
[20241116 13:16:36.804] NMEA Error: NMEA ZDA Error: Reversed time (#52): 593848200 ms 2340 week >> 593848020 ms 2340 week
[20241116 13:16:36.804]   1: $GNZDA,205710.200,16,11,2024,00,00*48
[20241116 13:16:36.804]   2: $GNZDA,205710.020,16,11,2024,00,00*48
[20241116 13:16:36.804] NMEA Error: NMEA GGA Error: Reversed time (#104): 593830200 ms 0 week >> 593830020 ms 0 week
[20241116 13:16:36.804]   1: $GNGGA,205710.200,4018.45597,N,11144.92523,W,1,80,0.59,0.59,M,1407.95,M,,*6C
[20241116 13:16:36.804]   2: $GNGGA,205710.020,4018.44895,N,11144.93225,W,0,139,0.12,0.12,M,1408.43,M,,*54
[20241116 13:16:36.804] NMEA Error: ISB GpsPos1 Error: Reversed time (#105): 593848200 ms 2340 week >> 593848040 ms 2340 week
[20241116 13:16:36.804] NMEA Error: NMEA ZDA Error: Reversed time (#53): 593848200 ms 2340 week >> 593848040 ms 2340 week
[20241116 13:16:36.804]   1: $GNZDA,205710.200,16,11,2024,00,00*48
[20241116 13:16:36.804]   2: $GNZDA,205710.040,16,11,2024,00,00*4E
[20241116 13:16:36.804] NMEA Error: NMEA GGA Error: Reversed time (#106): 593830200 ms 0 week >> 593830040 ms 0 week
[20241116 13:16:36.804]   1: $GNGGA,205710.200,4018.45345,N,11144.92775,W,0,75,0.08,0.08,M,1408.47,M,,*6F
[20241116 13:16:36.804]   2: $GNGGA,205710.040,4018.47061,N,11144.91059,W,6,30,0.29,0.29,M,1408.26,M,,*64
[20241116 13:16:36.804] NMEA Error: ISB GpsPos1 Error: Reversed time (#107): 593848200 ms 2340 week >> 593848060 ms 2340 week
[20241116 13:16:36.804] NMEA Error: NMEA ZDA Error: Reversed time (#54): 593848200 ms 2340 week >> 593848060 ms 2340 week
[20241116 13:16:36.804]   1: $GNZDA,205710.200,16,11,2024,00,00*48
[20241116 13:16:36.804]   2: $GNZDA,205710.060,16,11,2024,00,00*4C
[20241116 13:16:36.804] NMEA Error: NMEA GGA Error: Reversed time (#108): 593830200 ms 0 week >> 593830060 ms 0 week
[20241116 13:16:36.804]   1: $GNGGA,205710.200,4018.51027,N,11144.87093,W,1,149,0.66,0.66,M,1407.88,M,,*55
[20241116 13:16:36.804]   2: $GNGGA,205710.060,4018.54087,N,11144.84033,W,6,254,0.51,0.51,M,1408.03,M,,*53
[20241116 13:16:36.804] NMEA Error: ISB GpsPos1 Error: Reversed time (#109): 593848200 ms 2340 week >> 593848080 ms 2340 week
[20241116 13:16:36.804] NMEA Error: NMEA ZDA Error: Reversed time (#55): 593848200 ms 2340 week >> 593848080 ms 2340 week
[20241116 13:16:36.804]   1: $GNZDA,205710.200,16,11,2024,00,00*48
[20241116 13:16:36.804]   2: $GNZDA,205710.080,16,11,2024,00,00*42
[20241116 13:16:36.804] NMEA Error: NMEA GGA Error: Reversed time (#110): 593830200 ms 0 week >> 593830080 ms 0 week
[20241116 13:16:36.804]   1: $GNGGA,205710.200,4018.57567,N,11144.80553,W,1,68,0.58,0.58,M,1407.96,M,,*61
[20241116 13:16:36.804]   2: $GNGGA,205710.080,4018.53565,N,11144.84555,W,0,101,0.67,0.67,M,1407.88,M,,*5F
[20241116 13:16:36.804] NMEA Error: ISB GpsPos1 Error: Reversed time (#111): 593848200 ms 2340 week >> 593848100 ms 2340 week
[20241116 13:16:36.804] NMEA Error: NMEA ZDA Error: Reversed time (#56): 593848200 ms 2340 week >> 593848100 ms 2340 week
[20241116 13:16:36.804]   1: $GNZDA,205710.200,16,11,2024,00,00*48
[20241116 13:16:36.804]   2: $GNZDA,205710.100,16,11,2024,00,00*4B
[20241116 13:16:36.804] NMEA Error: NMEA GGA Error: Reversed time (#112): 593830200 ms 0 week >> 593830100 ms 0 week
[20241116 13:16:36.804]   1: $GNGGA,205710.200,4018.55947,N,11144.82173,W,6,141,0.40,0.40,M,1408.15,M,,*50
[20241116 13:16:36.804]   2: $GNGGA,205710.100,4018.58047,N,11144.80073,W,6,94,0.35,0.35,M,1408.19,M,,*61
[20241116 13:16:36.804] NMEA Error: ISB GpsPos1 Error: Reversed time (#113): 593848200 ms 2340 week >> 593848120 ms 2340 week
[20241116 13:16:36.804] NMEA Error: NMEA ZDA Error: Reversed time (#57): 593848200 ms 2340 week >> 593848120 ms 2340 week
[20241116 13:16:36.804]   1: $GNZDA,205710.200,16,11,2024,00,00*48
[20241116 13:16:36.804]   2: $GNZDA,205710.120,16,11,2024,00,00*49
[20241116 13:16:36.804] NMEA Error: NMEA GGA Error: Reversed time (#114): 593830200 ms 0 week >> 593830120 ms 0 week
[20241116 13:16:36.804]   1: $GNGGA,205710.200,4018.55977,N,11144.82143,W,0,167,0.35,0.35,M,1408.20,M,,*54
[20241116 13:16:36.804]   2: $GNGGA,205710.120,4018.61467,N,11144.76653,W,1,147,0.92,0.92,M,1407.63,M,,*58
[20241116 13:16:36.804] NMEA Error: ISB GpsPos1 Error: Reversed time (#115): 593848200 ms 2340 week >> 593848140 ms 2340 week
[20241116 13:16:36.804] NMEA Error: NMEA ZDA Error: Reversed time (#58): 593848200 ms 2340 week >> 593848140 ms 2340 week
[20241116 13:16:36.804]   1: $GNZDA,205710.200,16,11,2024,00,00*48
[20241116 13:16:36.804]   2: $GNZDA,205710.140,16,11,2024,00,00*4F
[20241116 13:16:36.804] NMEA Error: NMEA GGA Error: Reversed time (#116): 593830200 ms 0 week >> 593830140 ms 0 week
[20241116 13:16:36.804]   1: $GNGGA,205710.200,4018.61359,N,11144.76761,W,0,238,0.02,0.02,M,1408.53,M,,*55
[20241116 13:16:36.804]   2: $GNGGA,205710.140,4018.64599,N,11144.73521,W,1,28,0.54,0.54,M,1408.01,M,,*6B
[20241116 13:16:36.804] NMEA Error: ISB GpsPos1 Error: Reversed time (#117): 593848200 ms 2340 week >> 593848160 ms 2340 week
[20241116 13:16:36.804] NMEA Error: NMEA ZDA Error: Reversed time (#59): 593848200 ms 2340 week >> 593848160 ms 2340 week
[20241116 13:16:36.804]   1: $GNZDA,205710.200,16,11,2024,00,00*48
[20241116 13:16:36.804]   2: $GNZDA,205710.160,16,11,2024,00,00*4D
[20241116 13:16:36.804] NMEA Error: NMEA GGA Error: Reversed time (#118): 593830200 ms 0 week >> 593830160 ms 0 week
[20241116 13:16:36.804]   1: $GNGGA,205710.200,4018.67785,N,11144.70335,W,1,19,0.53,0.53,M,1408.01,M,,*62
[20241116 13:16:36.804]   2: $GNGGA,205710.160,4018.69723,N,11144.68397,W,6,67,0.32,0.32,M,1408.22,M,,*6B
[20241116 13:16:36.804] NMEA Error: ISB GpsPos1 Error: Reversed time (#119): 593848200 ms 2340 week >> 593848180 ms 2340 week
[20241116 13:16:36.804] NMEA Error: NMEA ZDA Error: Reversed time (#60): 593848200 ms 2340 week >> 593848180 ms 2340 week
[20241116 13:16:36.804]   1: $GNZDA,205710.200,16,11,2024,00,00*48
[20241116 13:16:36.804]   2: $GNZDA,205710.180,16,11,2024,00,00*43
[20241116 13:16:36.804] NMEA Error: NMEA GGA Error: Reversed time (#120): 593830200 ms 0 week >> 593830180 ms 0 week
[20241116 13:16:36.804]   1: $GNGGA,205710.200,4018.74703,N,11144.63417,W,1,62,0.83,0.83,M,1407.72,M,,*6C
[20241116 13:16:36.804]   2: $GNGGA,205710.180,4018.74145,N,11144.63975,W,0,163,0.09,0.09,M,1408.45,M,,*50
[20241116 13:16:36.804] NMEA Error: ISB GpsPos1 Error: Duplicate time (#121): 593848200 ms 2340 week >> 593848200 ms 2340 week
[20241116 13:16:36.804] NMEA Error: NMEA ZDA Error: Duplicate time (#61): 593848200 ms 2340 week >> 593848200 ms 2340 week
[20241116 13:16:36.804]   1: $GNZDA,205710.200,16,11,2024,00,00*48
[20241116 13:16:36.804]   2: $GNZDA,205710.200,16,11,2024,00,00*48
[20241116 13:16:36.804] NMEA Error: NMEA GGA Error: Duplicate time (#122): 593830200 ms 0 week >> 593830200 ms 0 week
[20241116 13:16:36.804]   1: $GNGGA,205710.200,4018.78327,N,11144.59793,W,1,185,0.70,0.70,M,1407.85,M,,*54
[20241116 13:16:36.804]   2: $GNGGA,205710.200,4018.82035,N,11144.56085,W,1,106,0.62,0.62,M,1407.93,M,,*52
[20241116 13:16:36.804] NMEA Error: ISB GpsPos1 Error: Reversed time (#123): 593848400 ms 2340 week >> 593848200 ms 2340 week
[20241116 13:16:36.804] NMEA Error: NMEA ZDA Error: Reversed time (#62): 593848400 ms 2340 week >> 593848200 ms 2340 week
[20241116 13:16:36.804]   1: $GNZDA,205710.400,16,11,2024,00,00*4E
[20241116 13:16:36.804]   2: $GNZDA,205710.200,16,11,2024,00,00*48
[20241116 13:16:36.804] NMEA Error: NMEA GGA Error: Reversed time (#124): 593830400 ms 0 week >> 593830200 ms 0 week
[20241116 13:16:36.804]   1: $GNGGA,205710.400,4018.76389,N,11144.61731,W,0,83,0.94,0.94,M,1407.61,M,,*67
[20241116 13:16:36.804]   2: $GNGGA,205710.200,4018.76167,N,11144.61953,W,0,219,0.04,0.04,M,1408.51,M,,*54
[20241116 13:16:36.804] NMEA Error: ISB GpsPos1 Error: Reversed time (#125): 593848400 ms 2340 week >> 593848200 ms 2340 week
[20241116 13:16:36.804] NMEA Error: NMEA ZDA Error: Reversed time (#63): 593848400 ms 2340 week >> 593848200 ms 2340 week
[20241116 13:16:36.804]   1: $GNZDA,205710.400,16,11,2024,00,00*4E
[20241116 13:16:36.804]   2: $GNZDA,205710.200,16,11,2024,00,00*48
[20241116 13:16:36.804] NMEA Error: NMEA GGA Error: Reversed time (#126): 593830400 ms 0 week >> 593830200 ms 0 week
[20241116 13:16:36.804]   1: $GNGGA,205710.400,4018.72153,N,11144.65967,W,0,99,0.67,0.67,M,1407.88,M,,*63
[20241116 13:16:36.804]   2: $GNGGA,205710.200,4018.68499,N,11144.69621,W,0,159,0.61,0.61,M,1407.94,M,,*5C
[20241116 13:16:36.804] NMEA Error: ISB GpsPos1 Error: Reversed time (#127): 593848400 ms 2340 week >> 593848220 ms 2340 week
[20241116 13:16:36.804] NMEA Error: NMEA ZDA Error: Reversed time (#64): 593848400 ms 2340 week >> 593848220 ms 2340 week
[20241116 13:16:36.804]   1: $GNZDA,205710.400,16,11,2024,00,00*4E
[20241116 13:16:36.804]   2: $GNZDA,205710.220,16,11,2024,00,00*4A
[20241116 13:16:36.804] NMEA Error: NMEA GGA Error: Reversed time (#128): 593830400 ms 0 week >> 593830220 ms 0 week
[20241116 13:16:36.804]   1: $GNGGA,205710.400,4018.67113,N,11144.71007,W,0,25,0.23,0.23,M,1408.31,M,,*63
[20241116 13:16:36.804]   2: $GNGGA,205710.220,4018.65619,N,11144.72501,W,0,07,0.25,0.25,M,1408.30,M,,*69
[20241116 13:16:36.804] NMEA Error: ISB GpsPos1 Error: Reversed time (#129): 593848400 ms 2340 week >> 593848240 ms 2340 week
[20241116 13:16:36.804] NMEA Error: NMEA ZDA Error: Reversed time (#65): 593848400 ms 2340 week >> 593848240 ms 2340 week
[20241116 13:16:36.804]   1: $GNZDA,205710.400,16,11,2024,00,00*4E
[20241116 13:16:36.804]   2: $GNZDA,205710.240,16,11,2024,00,00*4C
[20241116 13:16:36.804] NMEA Error: NMEA GGA Error: Reversed time (#130): 593830400 ms 0 week >> 593830240 ms 0 week
[20241116 13:16:36.804]   1: $GNGGA,205710.400,4018.61113,N,11144.77007,W,0,17,0.75,0.75,M,1407.79,M,,*61
[20241116 13:16:36.804]   2: $GNGGA,205710.240,4018.65991,N,11144.72129,W,1,45,0.81,0.81,M,1407.73,M,,*61
[20241116 13:16:36.804] NMEA Error: ISB GpsPos1 Error: Reversed time (#131): 593848400 ms 2340 week >> 593848260 ms 2340 week
[20241116 13:16:36.804] NMEA Error: NMEA ZDA Error: Reversed time (#66): 593848400 ms 2340 week >> 593848260 ms 2340 week
[20241116 13:16:36.804]   1: $GNZDA,205710.400,16,11,2024,00,00*4E
[20241116 13:16:36.804]   2: $GNZDA,205710.260,16,11,2024,00,00*4E
[20241116 13:16:36.804] NMEA Error: NMEA GGA Error: Reversed time (#132): 593830400 ms 0 week >> 593830260 ms 0 week
[20241116 13:16:36.804]   1: $GNGGA,205710.400,4018.70665,N,11144.67455,W,1,11,0.78,0.78,M,1407.77,M,,*6C
[20241116 13:16:36.804]   2: $GNGGA,205710.260,4018.71787,N,11144.66333,W,0,187,0.19,0.19,M,1408.36,M,,*53
[20241116 13:16:36.804] NMEA Error: ISB GpsPos1 Error: Reversed time (#133): 593848400 ms 2340 week >> 593848280 ms 2340 week
[20241116 13:16:36.804] NMEA Error: NMEA ZDA Error: Reversed time (#67): 593848400 ms 2340 week >> 593848280 ms 2340 week
[20241116 13:16:36.804]   1: $GNZDA,205710.400,16,11,2024,00,00*4E
[20241116 13:16:36.804]   2: $GNZDA,205710.280,16,11,2024,00,00*40
[20241116 13:16:36.804] NMEA Error: NMEA GGA Error: Reversed time (#134): 593830400 ms 0 week >> 593830280 ms 0 week
[20241116 13:16:36.804]   1: $GNGGA,205710.400,4018.68379,N,11144.69741,W,0,200,0.57,0.57,M,1407.98,M,,*57
[20241116 13:16:36.804]   2: $GNGGA,205710.280,4018.68145,N,11144.69975,W,0,217,0.04,0.04,M,1408.51,M,,*51
[20241116 13:16:36.804] NMEA Error: ISB GpsPos1 Error: Reversed time (#135): 593848400 ms 2340 week >> 593848300 ms 2340 week
[20241116 13:16:36.804] NMEA Error: NMEA ZDA Error: Reversed time (#68): 593848400 ms 2340 week >> 593848300 ms 2340 week
[20241116 13:16:36.804]   1: $GNZDA,205710.400,16,11,2024,00,00*4E
[20241116 13:16:36.804]   2: $GNZDA,205710.300,16,11,2024,00,00*49
[20241116 13:16:36.804] NMEA Error: NMEA GGA Error: Reversed time (#136): 593830400 ms 0 week >> 593830300 ms 0 week
[20241116 13:16:36.804]   1: $GNGGA,205710.400,4018.71577,N,11144.66543,W,1,60,0.57,0.57,M,1407.97,M,,*62
[20241116 13:16:36.804]   2: $GNGGA,205710.300,4018.66549,N,11144.71571,W,0,186,0.84,0.84,M,1407.71,M,,*59
[20241116 13:16:36.804] NMEA Error: ISB GpsPos1 Error: Reversed time (#137): 593848400 ms 2340 week >> 593848320 ms 2340 week
[20241116 13:16:36.804] NMEA Error: NMEA ZDA Error: Reversed time (#69): 593848400 ms 2340 week >> 593848320 ms 2340 week
[20241116 13:16:36.804]   1: $GNZDA,205710.400,16,11,2024,00,00*4E
[20241116 13:16:36.804]   2: $GNZDA,205710.320,16,11,2024,00,00*4B
[20241116 13:16:36.804] NMEA Error: NMEA GGA Error: Reversed time (#138): 593830400 ms 0 week >> 593830320 ms 0 week
[20241116 13:16:36.804]   1: $GNGGA,205710.400,4018.68901,N,11144.69219,W,6,136,0.39,0.39,M,1408.15,M,,*50
[20241116 13:16:36.804]   2: $GNGGA,205710.320,4018.68481,N,11144.69639,W,0,186,0.07,0.07,M,1408.48,M,,*53
[20241116 13:16:36.804] NMEA Error: ISB GpsPos1 Error: Reversed time (#139): 593848400 ms 2340 week >> 593848340 ms 2340 week
[20241116 13:16:36.804] NMEA Error: NMEA ZDA Error: Reversed time (#70): 593848400 ms 2340 week >> 593848340 ms 2340 week
[20241116 13:16:36.804]   1: $GNZDA,205710.400,16,11,2024,00,00*4E
[20241116 13:16:36.804]   2: $GNZDA,205710.340,16,11,2024,00,00*4D
[20241116 13:16:36.804] NMEA Error: NMEA GGA Error: Reversed time (#140): 593830400 ms 0 week >> 593830340 ms 0 week
[20241116 13:16:36.804]   1: $GNGGA,205710.400,4018.63561,N,11144.74559,W,0,204,0.82,0.82,M,1407.73,M,,*55
[20241116 13:16:36.804]   2: $GNGGA,205710.340,4018.66939,N,11144.71181,W,1,51,0.56,0.56,M,1407.98,M,,*60
[20241116 13:16:36.804] NMEA Error: ISB GpsPos1 Error: Reversed time (#141): 593848400 ms 2340 week >> 593848360 ms 2340 week
[20241116 13:16:36.804] NMEA Error: NMEA ZDA Error: Reversed time (#71): 593848400 ms 2340 week >> 593848360 ms 2340 week
[20241116 13:16:36.804]   1: $GNZDA,205710.400,16,11,2024,00,00*4E
[20241116 13:16:36.804]   2: $GNZDA,205710.360,16,11,2024,00,00*4F
[20241116 13:16:36.804] NMEA Error: NMEA GGA Error: Reversed time (#142): 593830400 ms 0 week >> 593830360 ms 0 week
[20241116 13:16:36.804]   1: $GNGGA,205710.400,4018.63093,N,11144.75027,W,0,127,0.64,0.64,M,1407.90,M,,*5F
[20241116 13:16:36.804]   2: $GNGGA,205710.360,4018.58635,N,11144.79485,W,0,25,0.74,0.74,M,1407.80,M,,*6E
[20241116 13:16:36.804] NMEA Error: ISB GpsPos1 Error: Reversed time (#143): 593848400 ms 2340 week >> 593848380 ms 2340 week
[20241116 13:16:36.804] NMEA Error: NMEA ZDA Error: Reversed time (#72): 593848400 ms 2340 week >> 593848380 ms 2340 week
[20241116 13:16:36.804]   1: $GNZDA,205710.400,16,11,2024,00,00*4E
[20241116 13:16:36.804]   2: $GNZDA,205710.380,16,11,2024,00,00*41
[20241116 13:16:36.804] NMEA Error: NMEA GGA Error: Reversed time (#144): 593830400 ms 0 week >> 593830380 ms 0 week
[20241116 13:16:36.804]   1: $GNGGA,205710.400,4018.58059,N,11144.80061,W,0,160,0.10,0.10,M,1408.45,M,,*5D
[20241116 13:16:36.805]   2: $GNGGA,205710.380,4018.55701,N,11144.82419,W,0,119,0.39,0.39,M,1408.15,M,,*57
[20241116 13:16:36.805] NMEA Error: ISB GpsPos1 Error: Duplicate time (#145): 593848400 ms 2340 week >> 593848400 ms 2340 week
[20241116 13:16:36.805] NMEA Error: NMEA ZDA Error: Duplicate time (#73): 593848400 ms 2340 week >> 593848400 ms 2340 week
[20241116 13:16:36.805]   1: $GNZDA,205710.400,16,11,2024,00,00*4E
[20241116 13:16:36.805]   2: $GNZDA,205710.400,16,11,2024,00,00*4E
[20241116 13:16:36.805] NMEA Error: NMEA GGA Error: Duplicate time (#146): 593830400 ms 0 week >> 593830400 ms 0 week
[20241116 13:16:36.805]   1: $GNGGA,205710.400,4018.50739,N,11144.87381,W,0,197,0.83,0.83,M,1407.72,M,,*5D
[20241116 13:16:36.805]   2: $GNGGA,205710.400,4018.50493,N,11144.87627,W,0,215,0.04,0.04,M,1408.50,M,,*51
[20241116 13:16:36.805] NMEA Error: ISB GpsPos1 Error: Reversed time (#147): 593848600 ms 2340 week >> 593848400 ms 2340 week
[20241116 13:16:36.805] NMEA Error: NMEA ZDA Error: Reversed time (#74): 593848600 ms 2340 week >> 593848400 ms 2340 week
[20241116 13:16:36.805]   1: $GNZDA,205710.600,16,11,2024,00,00*4C
[20241116 13:16:36.805]   2: $GNZDA,205710.400,16,11,2024,00,00*4E
[20241116 13:16:36.805] NMEA Error: NMEA GGA Error: Reversed time (#148): 593830600 ms 0 week >> 593830400 ms 0 week
[20241116 13:16:36.805]   1: $GNGGA,205710.600,4018.47025,N,11144.91095,W,0,190,0.58,0.58,M,1407.96,M,,*5F
[20241116 13:16:36.805]   2: $GNGGA,205710.400,4018.50619,N,11144.87501,W,1,87,0.60,0.60,M,1407.94,M,,*69
[20241116 13:16:36.805] NMEA Error: ISB GpsPos1 Error: Reversed time (#149): 593848600 ms 2340 week >> 593848400 ms 2340 week
[20241116 13:16:36.805] NMEA Error: NMEA ZDA Error: Reversed time (#75): 593848600 ms 2340 week >> 593848400 ms 2340 week
[20241116 13:16:36.805]   1: $GNZDA,205710.600,16,11,2024,00,00*4C
[20241116 13:16:36.805]   2: $GNZDA,205710.400,16,11,2024,00,00*4E
[20241116 13:16:36.805] NMEA Error: NMEA GGA Error: Reversed time (#150): 593830600 ms 0 week >> 593830400 ms 0 week
[20241116 13:16:36.805]   1: $GNGGA,205710.600,4018.47763,N,11144.90357,W,0,36,0.48,0.48,M,1408.07,M,,*6C
[20241116 13:16:36.805]   2: $GNGGA,205710.400,4018.44637,N,11144.93483,W,0,247,0.52,0.52,M,1408.02,M,,*51
[20241116 13:16:36.805] NMEA Error: ISB GpsPos1 Error: Reversed time (#151): 593848600 ms 2340 week >> 593848420 ms 2340 week
[20241116 13:16:36.805] NMEA Error: NMEA ZDA Error: Reversed time (#76): 593848600 ms 2340 week >> 593848420 ms 2340 week
[20241116 13:16:36.805]   1: $GNZDA,205710.600,16,11,2024,00,00*4C
[20241116 13:16:36.805]   2: $GNZDA,205710.420,16,11,2024,00,00*4C
[20241116 13:16:36.805] NMEA Error: NMEA GGA Error: Reversed time (#152): 593830600 ms 0 week >> 593830420 ms 0 week
[20241116 13:16:36.805]   1: $GNGGA,205710.600,4018.48519,N,11144.89601,W,1,135,0.65,0.65,M,1407.90,M,,*50
[20241116 13:16:36.805]   2: $GNGGA,205710.420,4018.51105,N,11144.87015,W,6,175,0.43,0.43,M,1408.11,M,,*59
[20241116 13:16:36.805] NMEA Error: ISB GpsPos1 Error: Reversed time (#153): 593848600 ms 2340 week >> 593848440 ms 2340 week
[20241116 13:16:36.805] NMEA Error: NMEA ZDA Error: Reversed time (#77): 593848600 ms 2340 week >> 593848440 ms 2340 week
[20241116 13:16:36.805]   1: $GNZDA,205710.600,16,11,2024,00,00*4C
[20241116 13:16:36.805]   2: $GNZDA,205710.440,16,11,2024,00,00*4A
[20241116 13:16:36.805] NMEA Error: NMEA GGA Error: Reversed time (#154): 593830600 ms 0 week >> 593830440 ms 0 week
[20241116 13:16:36.805]   1: $GNGGA,205710.600,4018.45183,N,11144.92937,W,0,37,0.99,0.99,M,1407.56,M,,*62
[20241116 13:16:36.805]   2: $GNGGA,205710.440,4018.46689,N,11144.91431,W,0,251,0.25,0.25,M,1408.29,M,,*57
[20241116 13:16:36.805] NMEA Error: ISB GpsPos1 Error: Reversed time (#155): 593848600 ms 2340 week >> 593848460 ms 2340 week
[20241116 13:16:36.805] NMEA Error: NMEA ZDA Error: Reversed time (#78): 593848600 ms 2340 week >> 593848460 ms 2340 week
[20241116 13:16:36.805]   1: $GNZDA,205710.600,16,11,2024,00,00*4C
[20241116 13:16:36.805]   2: $GNZDA,205710.460,16,11,2024,00,00*48
[20241116 13:16:36.805] NMEA Error: NMEA GGA Error: Reversed time (#156): 593830600 ms 0 week >> 593830460 ms 0 week
[20241116 13:16:36.805]   1: $GNGGA,205710.600,4018.44487,N,11144.93633,W,0,145,0.37,0.37,M,1408.18,M,,*59
[20241116 13:16:36.805]   2: $GNGGA,205710.460,4018.45249,N,11144.92871,W,0,127,0.13,0.13,M,1408.42,M,,*5A
[20241116 13:16:36.805] NMEA Error: ISB GpsPos1 Error: Reversed time (#157): 593848600 ms 2340 week >> 593848480 ms 2340 week
[20241116 13:16:36.805] NMEA Error: NMEA ZDA Error: Reversed time (#79): 593848600 ms 2340 week >> 593848480 ms 2340 week
[20241116 13:16:36.805]   1: $GNZDA,205710.600,16,11,2024,00,00*4C
[20241116 13:16:36.805]   2: $GNZDA,205710.480,16,11,2024,00,00*46
[20241116 13:16:36.805] NMEA Error: NMEA GGA Error: Reversed time (#158): 593830600 ms 0 week >> 593830480 ms 0 week
[20241116 13:16:36.805]   1: $GNGGA,205710.600,4018.39681,N,11144.98439,W,0,96,0.93,0.93,M,1407.61,M,,*6A
[20241116 13:16:36.805]   2: $GNGGA,205710.480,4018.33795,N,11145.04325,W,0,43,0.98,0.98,M,1407.56,M,,*6C
[20241116 13:16:36.805] NMEA Error: ISB GpsPos1 Error: Reversed time (#159): 593848600 ms 2340 week >> 593848500 ms 2340 week
[20241116 13:16:36.805] NMEA Error: NMEA ZDA Error: Reversed time (#80): 593848600 ms 2340 week >> 593848500 ms 2340 week
[20241116 13:16:36.805]   1: $GNZDA,205710.600,16,11,2024,00,00*4C
[20241116 13:16:36.805]   2: $GNZDA,205710.500,16,11,2024,00,00*4F
[20241116 13:16:36.805] NMEA Error: NMEA GGA Error: Reversed time (#160): 593830600 ms 0 week >> 593830500 ms 0 week
[20241116 13:16:36.805]   1: $GNGGA,205710.600,4018.30279,N,11145.07841,W,0,182,0.59,0.59,M,1407.95,M,,*5B
[20241116 13:16:36.805]   2: $GNGGA,205710.500,4018.30501,N,11145.07619,W,0,37,0.04,0.04,M,1408.50,M,,*6A
[20241116 13:16:36.805] NMEA Error: ISB GpsPos1 Error: Reversed time (#161): 593848600 ms 2340 week >> 593848520 ms 2340 week
